FMT, 128, 89, FMT, BBnNZ, Type,Length,Name,Format
FMT, 129, 23, PARM, Nf, Name,Value
FMT, 130, 35, GPS, BIBcLLeeEe, Status,Time,NSats,HDop,Lat,Lng,RelAlt,Alt,Spd,GCrs
FMT, 131, 27, IMU, ffffff, GyrX,GyrY,GyrZ,AccX,AccY,AccZ
FMT, 132, 67, MSG, Z, Message
FMT, 9, 19, CURR, hIhhhf, Thr,ThrInt,Volt,Curr,Vcc,CurrTot
FMT, 11, 11, MOT, hhhh, Mot1,Mot2,Mot3,Mot4
FMT, 12, 28, OF, hhBccffee, Dx,Dy,SQual,X,Y,Lat,Lng,Roll,Pitch
FMT, 5, 49, NTUN, Ecffffffffee, WPDst,WPBrg,PErX,PErY,DVelX,DVelY,VelX,VelY,DAcX,DAcY,DRol,DPit
FMT, 4, 25, CTUN, hcefchhhh, ThrIn,SonAlt,BarAlt,WPAlt,DesSonAlt,AngBst,CRate,ThrOut,DCRate
FMT, 15, 21, MAG, hhhhhhhhh, MagX,MagY,MagZ,OfsX,OfsY,OfsZ,MOfsX,MOfsY,MOfsZ
FMT, 6, 17, PM, BBBHHIhB, RenCnt,RenBlw,FixCnt,NLon,NLoop,MaxT,PMT,I2CErr
FMT, 8, 20, CMD, BBBBBeLL, CTot,CNum,CId,COpt,Prm1,Alt,Lat,Lng
FMT, 1, 17, ATT, cccccCC, RollIn,Roll,PitchIn,Pitch,YawIn,Yaw,NavYaw
FMT, 17, 37, INAV, cccfffiiff, BAlt,IAlt,IClb,ACorrX,ACorrY,ACorrZ,GLat,GLng,ILat,ILng
FMT, 3, 6, MODE, Mh, Mode,ThrCrs
FMT, 10, 3, STRT, , 
FMT, 13, 4, EV, B, Id
FMT, 20, 6, D16, Bh, Id,Value
FMT, 21, 6, DU16, BH, Id,Value
FMT, 22, 8, D32, Bi, Id,Value
FMT, 23, 8, DU32, BI, Id,Value
FMT, 24, 8, DFLT, Bf, Id,Value
FMT, 14, 28, PID, Biiiiif, Id,Error,P,I,D,Out,Gain
FMT, 16, 15, DMP, ccccCC, DCMRoll,DMPRoll,DCMPtch,DMPPtch,DCMYaw,DMPYaw
FMT, 18, 25, CAM, ILLeccC, GPSTime,Lat,Lng,Alt,Roll,Pitch,Yaw
FMT, 19, 5, ERR, BB, Subsys,ECode
MOT, 0, 0, 0, 0
ATT, 0.00, 0.00, 0.00, 0.00, 0.00, 0.00, 0.00
MOT, 0, 0, 0, 0
ATT, 0.00, 0.00, 0.00, 0.00, 0.00, 181.19, 0.00
MOT, 0, 0, 0, 0
ATT, 0.00, 0.00, 0.00, -0.01, 0.00, 181.19, 0.00
MOT, 0, 0, 0, 0
ATT, 0.00, 0.00, 0.00, 0.00, 0.00, 181.19, 0.00
MOT, 0, 0, 0, 0
ATT, 0.00, 0.00, 0.00, 0.01, 0.00, 181.19, 0.00
MOT, 0, 0, 0, 0
ATT, 0.00, -0.01, 0.00, 0.02, 0.00, 181.19, 0.00
MOT, 0, 0, 0, 0
ATT, 0.00, -0.01, 0.00, 0.03, 0.00, 181.19, 0.00
MOT, 0, 0, 0, 0
ATT, 0.00, -0.02, 0.00, 0.04, 0.00, 181.20, 0.00
MOT, 0, 0, 0, 0
ATT, 0.00, -0.03, 0.00, 0.06, 0.00, 181.20, 0.00
MOT, 0, 0, 0, 0
ATT, 0.00, -0.03, 0.00, 0.07, 0.00, 181.20, 0.00
MOT, 0, 0, 0, 0
ATT, 0.00, -0.04, 0.00, 0.08, 0.00, 181.20, 0.00
MOT, 0, 0, 0, 0
ATT, 0.00, -0.04, 0.00, 0.09, 0.00, 181.20, 0.00
MOT, 0, 0, 0, 0
ATT, 0.00, -0.05, 0.00, 0.10, 0.00, 181.20, 0.00
MOT, 0, 0, 0, 0
ATT, 0.00, -0.06, 0.00, 0.11, 0.00, 181.20, 0.00
MOT, 0, 0, 0, 0
ATT, 0.00, -0.06, 0.00, 0.13, 0.00, 181.20, 0.00
MOT, 0, 0, 0, 0
ATT, 0.00, -0.07, 0.00, 0.14, 0.00, 181.20, 0.00
MOT, 0, 0, 0, 0
ATT, 0.00, -0.08, 0.00, 0.15, 0.00, 181.20, 0.00
MOT, 0, 0, 0, 0
ATT, 0.00, -0.08, 0.00, 0.16, 0.00, 181.21, 0.00
MOT, 0, 0, 0, 0
ATT, 0.00, -0.09, 0.00, 0.17, 0.00, 181.21, 0.00
MOT, 0, 0, 0, 0
ATT, 0.00, -0.09, 0.00, 0.18, 0.00, 181.21, 0.00
MOT, 0, 0, 0, 0
ATT, 0.00, -0.10, 0.00, 0.19, 0.00, 181.21, 0.00
MOT, 0, 0, 0, 0
ATT, 0.00, -0.11, 0.00, 0.20, 0.00, 181.21, 0.00
MOT, 0, 0, 0, 0
ATT, 0.00, -0.11, 0.00, 0.21, 0.00, 181.21, 0.00
MOT, 0, 0, 0, 0
ATT, 0.00, -0.12, 0.00, 0.22, 0.00, 181.21, 0.00
MOT, 0, 0, 0, 0
ATT, 0.00, -0.12, 0.00, 0.23, 0.00, 181.21, 0.00
MOT, 0, 0, 0, 0
ATT, 0.00, -0.13, 0.00, 0.24, 0.00, 181.21, 0.00
MOT, 0, 0, 0, 0
ATT, 0.00, -0.13, 0.00, 0.25, 0.00, 181.21, 0.00
MOT, 0, 0, 0, 0
ATT, 0.00, -0.14, 0.00, 0.26, 0.00, 181.21, 0.00
MOT, 0, 0, 0, 0
ATT, 0.00, -0.14, 0.00, 0.27, 0.00, 181.21, 0.00
MOT, 0, 0, 0, 0
ATT, 0.00, -0.15, 0.00, 0.28, 0.00, 181.21, 0.00
MOT, 0, 0, 0, 0
ATT, 0.00, -0.15, 0.00, 0.29, 0.00, 181.21, 0.00
MOT, 0, 0, 0, 0
ATT, 0.00, -0.16, 0.00, 0.30, 0.00, 181.21, 0.00
MOT, 0, 0, 0, 0
ATT, 0.00, -0.17, 0.00, 0.31, 0.00, 181.21, 0.00
MOT, 0, 0, 0, 0
ATT, 0.00, -0.17, 0.00, 0.32, 0.00, 181.21, 0.00
MOT, 0, 0, 0, 0
ATT, 0.00, -0.17, 0.00, 0.33, 0.00, 181.21, 0.00
MOT, 0, 0, 0, 0
ATT, 0.00, -0.18, 0.00, 0.34, 0.00, 181.21, 0.00
MOT, 0, 0, 0, 0
ATT, 0.00, -0.18, 0.00, 0.34, 0.00, 181.21, 0.00
MOT, 0, 0, 0, 0
ATT, 0.00, -0.19, 0.00, 0.35, 0.00, 181.21, 0.00
MOT, 0, 0, 0, 0
ATT, 0.00, -0.20, 0.00, 0.36, 0.00, 181.21, 0.00
MOT, 0, 0, 0, 0
ATT, 0.00, -0.20, 0.00, 0.37, 0.00, 181.21, 0.00
MOT, 0, 0, 0, 0
ATT, 0.00, -0.21, 0.00, 0.38, 0.00, 181.21, 0.00
MOT, 0, 0, 0, 0
ATT, 0.00, -0.21, 0.00, 0.39, 0.00, 181.21, 0.00
MOT, 0, 0, 0, 0
ATT, 0.00, -0.21, 0.00, 0.40, 0.00, 181.21, 0.00
MOT, 0, 0, 0, 0
ATT, 0.00, -0.22, 0.00, 0.41, 0.00, 181.21, 0.00
MOT, 0, 0, 0, 0
ATT, 0.00, -0.22, 0.00, 0.42, 0.00, 181.22, 0.00
MOT, 0, 0, 0, 0
ATT, 0.00, -0.23, 0.00, 0.43, 0.00, 181.22, 0.00
MOT, 0, 0, 0, 0
ATT, 0.00, -0.24, 0.00, 0.44, 0.00, 181.22, 0.00
MOT, 0, 0, 0, 0
ATT, 0.00, -0.24, 0.00, 0.44, 0.00, 181.22, 0.00
MOT, 0, 0, 0, 0
ATT, 0.00, -0.25, 0.00, 0.45, 0.00, 181.22, 0.00
MOT, 0, 0, 0, 0
ATT, 0.00, -0.25, 0.00, 0.46, 0.00, 181.22, 0.00
MOT, 0, 0, 0, 0
ATT, 0.00, -0.26, 0.00, 0.47, 0.00, 181.22, 0.00
MOT, 0, 0, 0, 0
ATT, 0.00, -0.26, 0.00, 0.47, 0.00, 181.22, 0.00
MOT, 0, 0, 0, 0
ATT, 0.00, -0.27, 0.00, 0.48, 0.00, 181.22, 0.00
MOT, 0, 0, 0, 0
ATT, 0.00, -0.27, 0.00, 0.49, 0.00, 181.22, 0.00
MOT, 0, 0, 0, 0
ATT, 0.00, -0.28, 0.00, 0.50, 0.00, 181.22, 0.00
MOT, 0, 0, 0, 0
ATT, 0.00, -0.28, 0.00, 0.51, 0.00, 181.22, 0.00
MOT, 0, 0, 0, 0
ATT, 0.00, -0.29, 0.00, 0.52, 0.00, 181.22, 0.00
MOT, 0, 0, 0, 0
ATT, 0.00, -0.29, 0.00, 0.52, 0.00, 181.22, 0.00
MOT, 0, 0, 0, 0
ATT, 0.00, -0.29, 0.00, 0.53, 0.00, 181.22, 0.00
MOT, 0, 0, 0, 0
ATT, 0.00, -0.30, 0.00, 0.54, 0.00, 181.22, 0.00
MOT, 0, 0, 0, 0
ATT, 0.00, -0.30, 0.00, 0.55, 0.00, 181.22, 0.00
MOT, 0, 0, 0, 0
ATT, 0.00, -0.31, 0.00, 0.56, 0.00, 181.22, 0.00
MOT, 0, 0, 0, 0
ATT, 0.00, -0.31, 0.00, 0.56, 0.00, 181.22, 0.00
MOT, 0, 0, 0, 0
ATT, 0.00, -0.32, 0.00, 0.57, 0.00, 181.22, 0.00
MOT, 0, 0, 0, 0
ATT, 0.00, -0.32, 0.00, 0.58, 0.00, 181.22, 0.00
MOT, 0, 0, 0, 0
ATT, 0.00, -0.33, 0.00, 0.58, 0.00, 181.22, 0.00
MOT, 0, 0, 0, 0
ATT, 0.00, -0.33, 0.00, 0.59, 0.00, 181.22, 0.00
MOT, 0, 0, 0, 0
ATT, 0.00, -0.34, 0.00, 0.60, 0.00, 181.22, 0.00
MOT, 0, 0, 0, 0
ATT, 0.00, -0.34, 0.00, 0.60, 0.00, 181.23, 0.00
MOT, 0, 0, 0, 0
ATT, 0.00, -0.34, 0.00, 0.61, 0.00, 181.23, 0.00
MOT, 0, 0, 0, 0
ATT, 0.00, -0.35, 0.00, 0.62, 0.00, 181.23, 0.00
MOT, 0, 0, 0, 0
ATT, 0.00, -0.35, 0.00, 0.63, 0.00, 181.23, 0.00
MOT, 0, 0, 0, 0
ATT, 0.00, -0.35, 0.00, 0.63, 0.00, 181.23, 0.00
MOT, 0, 0, 0, 0
ATT, 0.00, -0.36, 0.00, 0.64, 0.00, 181.22, 0.00
MOT, 0, 0, 0, 0
ATT, 0.00, -0.36, 0.00, 0.64, 0.00, 181.23, 0.00
MOT, 0, 0, 0, 0
ATT, 0.00, -0.37, 0.00, 0.65, 0.00, 181.23, 0.00
MOT, 0, 0, 0, 0
ATT, 0.00, -0.37, 0.00, 0.66, 0.00, 181.23, 0.00
MOT, 0, 0, 0, 0
ATT, 0.00, -0.37, 0.00, 0.67, 0.00, 181.22, 0.00
MOT, 0, 0, 0, 0
ATT, 0.00, -0.38, 0.00, 0.67, 0.00, 181.22, 0.00
MOT, 0, 0, 0, 0
ATT, 0.00, -0.38, 0.00, 0.68, 0.00, 181.23, 0.00
MOT, 0, 0, 0, 0
ATT, 0.00, -0.38, 0.00, 0.69, 0.00, 181.23, 0.00
MOT, 0, 0, 0, 0
ATT, 0.00, -0.39, 0.00, 0.69, 0.00, 181.23, 0.00
MOT, 0, 0, 0, 0
ATT, 0.00, -0.39, 0.00, 0.70, 0.00, 181.23, 0.00
MOT, 0, 0, 0, 0
ATT, 0.00, -0.39, 0.00, 0.70, 0.00, 181.23, 0.00
MOT, 0, 0, 0, 0
ATT, 0.00, -0.40, 0.00, 0.71, 0.00, 181.23, 0.00
MOT, 0, 0, 0, 0
ATT, 0.00, -0.40, 0.00, 0.71, 0.00, 181.23, 0.00
MOT, 0, 0, 0, 0
ATT, 0.00, -0.40, 0.00, 0.72, 0.00, 181.22, 0.00
MOT, 0, 0, 0, 0
ATT, 0.00, -0.41, 0.00, 0.73, 0.00, 181.23, 0.00
MOT, 0, 0, 0, 0
ATT, 0.00, -0.41, 0.00, 0.73, 0.00, 181.22, 0.00
MOT, 0, 0, 0, 0
ATT, 0.00, -0.42, 0.00, 0.74, 0.00, 181.23, 0.00
MOT, 0, 0, 0, 0
ATT, 0.00, -0.42, 0.00, 0.74, 0.00, 181.23, 0.00
MOT, 0, 0, 0, 0
ATT, 0.00, -0.42, 0.00, 0.75, 0.00, 181.22, 0.00
MOT, 0, 0, 0, 0
ATT, -2.00, -0.42, 0.00, 0.77, 0.00, 181.22, 0.00
MOT, 0, 0, 0, 0
ATT, -2.00, -0.41, 0.00, 0.80, 0.00, 181.22, 0.00
MOT, 0, 0, 0, 0
ATT, -2.00, -0.38, 0.00, 0.82, 0.00, 181.17, 0.00
MOT, 0, 0, 0, 0
ATT, 0.00, -0.34, 0.00, 0.85, 0.00, 181.13, 0.00
MOT, 0, 0, 0, 0
ATT, 0.00, -0.31, 0.00, 0.85, 0.00, 181.18, 0.00
MOT, 0, 0, 0, 0
ATT, 1.00, -0.30, 0.00, 0.83, 0.00, 181.25, 0.00
MOT, 0, 0, 0, 0
ATT, 0.00, -0.30, 0.00, 0.81, 0.00, 181.39, 0.00
MOT, 0, 0, 0, 0
ATT, 0.00, -0.32, 0.00, 0.78, 0.00, 181.57, 0.00
MOT, 0, 0, 0, 0
ATT, 0.00, -0.33, 0.00, 0.78, 0.00, 181.72, 0.00
MOT, 0, 0, 0, 0
ATT, 0.00, -0.36, 0.00, 0.78, 0.00, 181.86, 0.00
MOT, 0, 0, 0, 0
ATT, 0.00, -0.39, 0.00, 0.79, 0.00, 181.99, 0.00
MOT, 0, 0, 0, 0
ATT, 0.00, -0.42, 0.00, 0.81, 0.00, 182.08, 0.00
MOT, 0, 0, 0, 0
ATT, 0.00, -0.43, 0.00, 0.83, 0.00, 182.15, 0.00
MOT, 0, 0, 0, 0
ATT, -2.00, -0.45, 0.00, 0.84, 0.00, 182.27, 0.00
MOT, 0, 0, 0, 0
ATT, -4.00, -0.45, 0.00, 0.84, 0.00, 182.45, 0.00
MOT, 0, 0, 0, 0
ATT, -5.00, -0.44, 0.00, 0.83, 0.00, 182.68, 0.00
MOT, 0, 0, 0, 0
ATT, -11.00, -0.51, 0.00, 0.83, 0.00, 182.81, 0.00
MOT, 0, 0, 0, 0
ATT, -13.00, -0.77, 0.00, 0.79, 0.00, 182.94, 0.00
MOT, 0, 0, 0, 0
ATT, -28.00, -1.15, 0.00, 0.84, 0.00, 182.96, 0.00
MOT, 0, 0, 0, 0
ATT, -37.00, -1.58, 0.00, 0.84, 0.00, 182.91, 0.00
MOT, 0, 0, 0, 0
ATT, -47.00, -2.04, 0.00, 0.83, 0.00, 182.86, 0.00
MOT, 0, 0, 0, 0
ATT, -55.00, -2.63, 0.00, 0.83, 0.00, 182.79, 0.00
MOT, 0, 0, 0, 0
ATT, -64.00, -3.32, 0.00, 0.77, 0.00, 182.75, 0.00
MOT, 0, 0, 0, 0
ATT, -71.00, -4.08, 0.00, 0.66, 0.00, 182.72, 0.00
MOT, 0, 0, 0, 0
ATT, -77.00, -4.84, 0.00, 0.49, 0.00, 182.67, 0.00
MOT, 0, 0, 0, 0
ATT, -81.00, -5.70, 0.00, 0.23, 0.00, 182.59, 0.00
MOT, 0, 0, 0, 0
ATT, -79.00, -6.55, 0.00, -0.09, 0.00, 182.51, 0.00
MOT, 0, 0, 0, 0
ATT, -76.00, -7.38, 0.00, -0.45, 0.00, 182.46, 0.00
MOT, 0, 0, 0, 0
ATT, -73.00, -8.10, 0.00, -0.79, 0.00, 182.42, 0.00
MOT, 0, 0, 0, 0
ATT, -70.00, -8.85, 0.00, -1.15, 0.00, 182.37, 0.00
MOT, 0, 0, 0, 0
ATT, -66.00, -9.59, 0.00, -1.40, 0.00, 182.33, 0.00
MOT, 0, 0, 0, 0
ATT, -63.00, -10.29, 0.00, -1.55, 0.00, 182.28, 0.00
MOT, 0, 0, 0, 0
ATT, -61.00, -10.91, 0.00, -1.61, 0.00, 182.24, 0.00
MOT, 0, 0, 0, 0
ATT, -63.00, -11.61, 0.00, -1.64, 0.00, 182.23, 0.00
MOT, 0, 0, 0, 0
ATT, -69.00, -12.38, 0.00, -1.64, 0.00, 182.22, 0.00
MOT, 0, 0, 0, 0
ATT, -78.00, -13.25, 0.00, -1.62, 0.00, 182.18, 0.00
MOT, 0, 0, 0, 0
ATT, -84.00, -14.10, 0.00, -1.55, 0.00, 182.12, 0.00
MOT, 0, 0, 0, 0
ATT, -86.00, -15.03, 0.00, -1.42, 0.00, 182.04, 0.00
MOT, 0, 0, 0, 0
ATT, -86.00, -15.95, 0.00, -1.24, 0.00, 181.96, 0.00
MOT, 0, 0, 0, 0
ATT, -82.00, -16.84, 0.00, -1.00, 0.00, 181.90, 0.00
MOT, 0, 0, 0, 0
ATT, -75.00, -17.57, 0.00, -0.80, 0.00, 181.85, 0.00
MOT, 0, 0, 0, 0
ATT, -67.00, -18.30, 0.00, -0.64, 0.00, 181.76, 0.00
MOT, 0, 0, 0, 0
ATT, -66.00, -19.02, 0.00, -0.55, 0.00, 181.63, 0.00
MOT, 0, 0, 0, 0
ATT, -69.00, -19.77, 0.00, -0.53, 0.00, 181.46, 0.00
MOT, 0, 0, 0, 0
ATT, -74.00, -20.51, 0.00, -0.53, 0.00, 181.32, 0.00
MOT, 0, 0, 0, 0
ATT, -82.00, -21.39, 0.00, -0.55, 0.00, 181.23, 0.00
MOT, 0, 0, 0, 0
ATT, -91.00, -22.39, 0.00, -0.57, 0.00, 181.23, 0.00
MOT, 0, 0, 0, 0
ATT, -100.00, -23.47, 0.00, -0.57, 0.00, 181.35, 0.00
MOT, 0, 0, 0, 0
ATT, -105.00, -24.49, 0.00, -0.56, 0.00, 181.54, 0.00
MOT, 0, 0, 0, 0
ATT, -103.00, -25.59, 0.00, -0.54, 0.00, 181.84, 0.00
MOT, 0, 0, 0, 0
ATT, -95.00, -26.61, 0.00, -0.51, 0.00, 182.13, 0.00
MOT, 0, 0, 0, 0
ATT, -89.00, -27.59, 0.00, -0.46, 0.00, 182.33, 0.00
MOT, 0, 0, 0, 0
ATT, -89.00, -28.46, 0.00, -0.37, 0.00, 182.42, 0.00
MOT, 0, 0, 0, 0
ATT, -94.00, -29.47, 0.00, -0.21, 0.00, 182.38, 0.00
MOT, 0, 0, 0, 0
ATT, -103.00, -30.59, 0.00, -0.03, 0.00, 182.25, 0.00
MOT, 0, 0, 0, 0
ATT, -109.00, -31.76, 0.00, 0.14, 0.00, 182.15, 0.00
MOT, 0, 0, 0, 0
ATT, -111.00, -32.83, 0.00, 0.30, 0.00, 182.14, 0.00
MOT, 0, 0, 0, 0
ATT, -113.00, -34.02, 0.00, 0.48, 0.00, 182.23, 0.00
MOT, 0, 0, 0, 0
ATT, -119.00, -35.25, 0.00, 0.69, 0.00, 182.42, 0.00
MOT, 0, 0, 0, 0
ATT, -125.00, -36.57, 0.00, 0.90, 0.00, 182.61, 0.00
MOT, 0, 0, 0, 0
ATT, -129.00, -37.80, 0.00, 1.09, 0.00, 182.77, 0.00
MOT, 0, 0, 0, 0
ATT, -135.00, -39.21, 0.00, 1.28, 0.00, 182.99, 0.00
MOT, 0, 0, 0, 0
ATT, -134.00, -40.59, 0.00, 1.37, 0.00, 183.27, 0.00
MOT, 0, 0, 0, 0
ATT, -125.00, -41.92, 0.00, 1.34, 0.00, 183.58, 0.00
MOT, 0, 0, 0, 0
ATT, -108.00, -43.13, 0.00, 1.16, 0.00, 183.83, 0.00
MOT, 0, 0, 0, 0
ATT, -98.00, -44.15, 0.00, 0.95, 0.00, 184.07, 0.00
MOT, 0, 0, 0, 0
ATT, -92.00, -45.20, 0.00, 0.68, 0.00, 184.22, 0.00
MOT, 0, 0, 0, 0
ATT, -95.00, -46.26, 0.00, 0.41, 0.00, 184.33, 0.00
MOT, 0, 0, 0, 0
ATT, -105.00, -47.37, 0.00, 0.22, 0.00, 184.49, 0.00
MOT, 0, 0, 0, 0
ATT, -112.00, -48.43, 0.00, 0.12, 0.00, 184.68, 0.00
MOT, 0, 0, 0, 0
ATT, -117.00, -49.65, 0.00, -0.02, 0.00, 184.97, 0.00
MOT, 0, 0, 0, 0
ATT, -120.00, -50.87, 0.00, -0.23, 0.00, 185.27, 0.00
MOT, 0, 0, 0, 0
ATT, -118.00, -52.10, 0.00, -0.40, 0.00, 185.52, 0.00
MOT, 0, 0, 0, 0
ATT, -115.00, -53.24, 0.00, -0.47, 0.00, 185.72, 0.00
MOT, 0, 0, 0, 0
ATT, -108.00, -54.41, 0.00, -0.45, 0.00, 185.92, 0.00
MOT, 0, 0, 0, 0
ATT, -102.00, -55.54, 0.00, -0.34, 0.00, 186.04, 0.00
MOT, 0, 0, 0, 0
ATT, -101.00, -56.55, 0.00, -0.21, 0.00, 186.08, 0.00
MOT, 0, 0, 0, 0
ATT, -103.00, -57.66, 0.00, -0.10, 0.00, 186.04, 0.00
MOT, 0, 0, 0, 0
ATT, -104.00, -58.79, 0.00, -0.08, 0.00, 186.01, 0.00
MOT, 0, 0, 0, 0
ATT, -108.00, -59.86, 0.00, -0.10, 0.00, 186.07, 0.00
MOT, 0, 0, 0, 0
ATT, -115.00, -61.11, 0.00, -0.17, 0.00, 186.30, 0.00
MOT, 0, 0, 0, 0
ATT, -118.00, -62.38, 0.00, -0.28, 0.00, 186.68, 0.00
MOT, 0, 0, 0, 0
ATT, -124.00, -63.71, 0.00, -0.39, 0.00, 187.16, 0.00
MOT, 0, 0, 0, 0
ATT, -133.00, -65.16, 0.00, -0.45, 0.00, 187.63, 0.00
MOT, 0, 0, 0, 0
ATT, -146.00, -66.59, 0.00, -0.49, 0.00, 188.05, 0.00
MOT, 0, 0, 0, 0
ATT, -149.00, -68.17, 0.00, -0.58, 0.00, 188.47, 0.00
MOT, 0, 0, 0, 0
ATT, -142.00, -69.68, 0.00, -0.81, 0.00, 188.75, 0.00
MOT, 0, 0, 0, 0
ATT, -128.00, -71.09, 0.00, -1.14, 0.00, 188.87, 0.00
MOT, 0, 0, 0, 0
ATT, -111.00, -72.39, 0.00, -1.49, 0.00, 188.84, 0.00
MOT, 0, 0, 0, 0
ATT, -94.00, -73.53, 0.00, -1.79, 0.00, 188.72, 0.00
MOT, 0, 0, 0, 0
ATT, -81.00, -74.42, 0.00, -2.02, 0.00, 188.60, 0.00
MOT, 0, 0, 0, 0
ATT, -76.00, -75.32, 0.00, -2.22, 0.00, 188.52, 0.00
MOT, 0, 0, 0, 0
ATT, -83.00, -76.17, 0.00, -2.36, 0.00, 188.58, 0.00
MOT, 0, 0, 0, 0
ATT, -99.00, -77.23, 0.00, -2.50, 0.00, 188.81, 0.00
MOT, 0, 0, 0, 0
ATT, -118.00, -78.46, 0.00, -2.63, 0.00, 189.21, 0.00
MOT, 0, 0, 0, 0
ATT, -123.00, -79.63, 0.00, -2.78, 0.00, 189.65, 0.00
MOT, 0, 0, 0, 0
ATT, -113.00, -80.89, 0.00, -2.99, 0.00, 190.10, 0.00
MOT, 0, 0, 0, 0
ATT, -96.00, -82.07, 0.00, -3.20, 0.00, 190.46, 0.00
MOT, 0, 0, 0, 0
ATT, -80.00, -83.00, 0.00, -3.36, 0.00, 190.69, 0.00
MOT, 0, 0, 0, 0
ATT, -70.00, -83.87, 0.00, -3.51, 0.00, 190.91, 0.00
MOT, 0, 0, 0, 0
ATT, -66.00, -84.65, 0.00, -3.64, 0.00, 191.15, 0.00
MOT, 0, 0, 0, 0
ATT, -66.00, -85.34, 0.00, -3.74, 0.00, 191.38, 0.00
MOT, 0, 0, 0, 0
ATT, -65.00, -86.08, 0.00, -3.81, 0.00, 191.64, 0.00
MOT, 0, 0, 0, 0
ATT, -58.00, -86.69, 0.00, -3.84, 0.00, 191.85, 0.00
MOT, 0, 0, 0, 0
ATT, -45.00, -87.25, 0.00, -3.83, 0.00, 192.02, 0.00
MOT, 0, 0, 0, 0
ATT, -24.00, -87.57, 0.00, -3.78, 0.00, 192.14, 0.00
MOT, 0, 0, 0, 0
ATT, -1.00, -87.64, 0.00, -3.73, 0.00, 192.19, 0.00
MOT, 0, 0, 0, 0
ATT, 15.00, -87.53, 0.00, -3.70, 0.00, 192.18, 0.00
MOT, 0, 0, 0, 0
ATT, 24.00, -87.31, 0.00, -3.73, 0.00, 192.13, 0.00
MOT, 0, 0, 0, 0
ATT, 29.00, -87.01, 0.00, -3.81, 0.00, 192.04, 0.00
MOT, 0, 0, 0, 0
ATT, 38.00, -86.65, 0.00, -3.90, 0.00, 191.90, 0.00
MOT, 0, 0, 0, 0
ATT, 54.00, -86.10, 0.00, -4.00, 0.00, 191.68, 0.00
MOT, 0, 0, 0, 0
ATT, 73.00, -85.36, 0.00, -4.13, 0.00, 191.43, 0.00
MOT, 0, 0, 0, 0
ATT, 97.00, -84.40, 0.00, -4.30, 0.00, 191.19, 0.00
MOT, 0, 0, 0, 0
ATT, 127.00, -83.28, 0.00, -4.48, 0.00, 190.99, 0.00
MOT, 0, 0, 0, 0
ATT, 151.00, -81.84, 0.00, -4.69, 0.00, 190.79, 0.00
MOT, 0, 0, 0, 0
ATT, 171.00, -80.16, 0.00, -4.90, 0.00, 190.59, 0.00
MOT, 0, 0, 0, 0
ATT, 190.00, -78.23, 0.00, -5.13, 0.00, 190.34, 0.00
MOT, 0, 0, 0, 0
ATT, 200.00, -76.18, 0.00, -5.29, 0.00, 190.09, 0.00
MOT, 0, 0, 0, 0
ATT, 204.00, -74.08, 0.00, -5.35, 0.00, 189.98, 0.00
MOT, 0, 0, 0, 0
ATT, 205.00, -71.91, 0.00, -5.38, 0.00, 189.99, 0.00
MOT, 0, 0, 0, 0
ATT, 204.00, -69.74, 0.00, -5.45, 0.00, 190.07, 0.00
MOT, 0, 0, 0, 0
ATT, 197.00, -67.65, 0.00, -5.66, 0.00, 190.14, 0.00
MOT, 0, 0, 0, 0
ATT, 186.00, -65.61, 0.00, -6.02, 0.00, 190.16, 0.00
MOT, 0, 0, 0, 0
ATT, 185.00, -63.77, 0.00, -6.42, 0.00, 190.10, 0.00
MOT, 0, 0, 0, 0
ATT, 195.00, -61.74, 0.00, -6.87, 0.00, 189.98, 0.00
MOT, 0, 0, 0, 0
ATT, 205.00, -59.68, 0.00, -7.32, 0.00, 189.75, 0.00
MOT, 0, 0, 0, 0
ATT, 205.00, -57.56, 0.00, -7.73, 0.00, 189.41, 0.00
MOT, 0, 0, 0, 0
ATT, 196.00, -55.41, 0.00, -8.03, 0.00, 188.97, 0.00
MOT, 0, 0, 0, 0
ATT, 178.00, -53.33, 0.00, -8.16, 0.00, 188.49, 0.00
MOT, 0, 0, 0, 0
ATT, 158.00, -51.42, 0.00, -8.14, 0.00, 188.02, 0.00
MOT, 0, 0, 0, 0
ATT, 140.00, -49.70, 0.00, -7.97, 0.00, 187.59, 0.00
MOT, 0, 0, 0, 0
ATT, 125.00, -48.28, 0.00, -7.69, 0.00, 187.24, 0.00
MOT, 0, 0, 0, 0
ATT, 113.00, -46.88, 0.00, -7.26, 0.00, 186.92, 0.00
MOT, 0, 0, 0, 0
ATT, 110.00, -45.58, 0.00, -6.78, 0.00, 186.63, 0.00
MOT, 0, 0, 0, 0
ATT, 112.00, -44.43, 0.00, -6.37, 0.00, 186.40, 0.00
MOT, 0, 0, 0, 0
ATT, 113.00, -43.19, 0.00, -6.01, 0.00, 186.17, 0.00
MOT, 0, 0, 0, 0
ATT, 112.00, -41.94, 0.00, -5.71, 0.00, 186.03, 0.00
MOT, 0, 0, 0, 0
ATT, 118.00, -40.70, 0.00, -5.51, 0.00, 185.98, 0.00
MOT, 0, 0, 0, 0
ATT, 127.00, -39.25, 0.00, -5.37, 0.00, 185.94, 0.00
MOT, 0, 0, 0, 0
ATT, 132.00, -37.80, 0.00, -5.21, 0.00, 185.91, 0.00
MOT, 0, 0, 0, 0
ATT, 129.00, -36.47, 0.00, -4.97, 0.00, 185.82, 0.00
MOT, 0, 0, 0, 0
ATT, 130.00, -35.01, 0.00, -4.65, 0.00, 185.69, 0.00
MOT, 0, 0, 0, 0
ATT, 127.00, -33.58, 0.00, -4.37, 0.00, 185.62, 0.00
MOT, 0, 0, 0, 0
ATT, 125.00, -32.13, 0.00, -4.16, 0.00, 185.59, 0.00
MOT, 0, 0, 0, 0
ATT, 124.00, -30.75, 0.00, -3.97, 0.00, 185.63, 0.00
MOT, 0, 0, 0, 0
ATT, 131.00, -29.47, 0.00, -3.84, 0.00, 185.73, 0.00
MOT, 0, 0, 0, 0
ATT, 148.00, -27.93, 0.00, -3.78, 0.00, 185.89, 0.00
MOT, 0, 0, 0, 0
ATT, 161.00, -26.22, 0.00, -3.76, 0.00, 186.01, 0.00
MOT, 0, 0, 0, 0
ATT, 157.00, -24.41, 0.00, -3.68, 0.00, 186.06, 0.00
MOT, 0, 0, 0, 0
ATT, 159.00, -22.58, 0.00, -3.47, 0.00, 185.98, 0.00
MOT, 0, 0, 0, 0
ATT, 174.00, -20.75, 0.00, -3.26, 0.00, 185.77, 0.00
MOT, 0, 0, 0, 0
ATT, 183.00, -18.98, 0.00, -3.20, 0.00, 185.53, 0.00
MOT, 0, 0, 0, 0
ATT, 186.00, -16.82, 0.00, -3.25, 0.00, 185.28, 0.00
MOT, 0, 0, 0, 0
ATT, 194.00, -14.46, 0.00, -3.19, 0.00, 185.10, 0.00
MOT, 0, 0, 0, 0
ATT, 234.00, -11.93, 0.00, -2.98, 0.00, 184.97, 0.00
MOT, 0, 0, 0, 0
ATT, 246.00, -9.45, 0.00, -2.79, 0.00, 184.78, 0.00
MOT, 0, 0, 0, 0
ATT, 226.00, -7.25, 0.00, -2.60, 0.00, 184.45, 0.00
MOT, 0, 0, 0, 0
ATT, 207.00, -5.06, 0.00, -2.39, 0.00, 183.77, 0.00
MOT, 0, 0, 0, 0
ATT, 190.00, -3.08, 0.00, -2.34, 0.00, 182.73, 0.00
MOT, 0, 0, 0, 0
ATT, 172.00, -1.30, 0.00, -2.34, 0.00, 181.64, 0.00
MOT, 0, 0, 0, 0
ATT, 150.00, 0.37, 0.00, -2.33, 0.00, 180.77, 0.00
MOT, 0, 0, 0, 0
ATT, 139.00, 2.15, 0.00, -2.28, 0.00, 180.20, 0.00
MOT, 0, 0, 0, 0
ATT, 151.00, 3.89, 0.00, -2.21, 0.00, 179.91, 0.00
MOT, 0, 0, 0, 0
ATT, 162.00, 5.62, 0.00, -2.16, 0.00, 179.70, 0.00
MOT, 0, 0, 0, 0
ATT, 167.00, 7.63, 0.00, -2.11, 0.00, 179.48, 0.00
MOT, 0, 0, 0, 0
ATT, 166.00, 9.62, 0.00, -2.12, 0.00, 179.24, 0.00
MOT, 0, 0, 0, 0
ATT, 157.00, 11.49, 0.00, -2.23, 0.00, 179.04, 0.00
MOT, 0, 0, 0, 0
ATT, 149.00, 13.18, 0.00, -2.37, 0.00, 178.94, 0.00
MOT, 0, 0, 0, 0
ATT, 148.00, 14.76, 0.00, -2.50, 0.00, 178.92, 0.00
MOT, 0, 0, 0, 0
ATT, 149.00, 16.25, 0.00, -2.58, 0.00, 178.92, 0.00
MOT, 0, 0, 0, 0
ATT, 142.00, 17.68, 0.00, -2.59, 0.00, 178.86, 0.00
MOT, 0, 0, 0, 0
ATT, 128.00, 19.02, 0.00, -2.53, 0.00, 178.74, 0.00
MOT, 0, 0, 0, 0
ATT, 119.00, 20.33, 0.00, -2.44, 0.00, 178.57, 0.00
MOT, 0, 0, 0, 0
ATT, 119.00, 21.62, 0.00, -2.26, 0.00, 178.35, 0.00
MOT, 0, 0, 0, 0
ATT, 114.00, 22.85, 0.00, -2.06, 0.00, 178.08, 0.00
MOT, 0, 0, 0, 0
ATT, 107.00, 24.02, 0.00, -1.79, 0.00, 177.81, 0.00
MOT, 0, 0, 0, 0
ATT, 112.00, 25.15, 0.00, -1.46, 0.00, 177.57, 0.00
MOT, 0, 0, 0, 0
ATT, 118.00, 26.49, 0.00, -1.06, 0.00, 177.32, 0.00
MOT, 0, 0, 0, 0
ATT, 121.00, 27.95, 0.00, -0.66, 0.00, 177.02, 0.00
MOT, 0, 0, 0, 0
ATT, 123.00, 29.49, 0.00, -0.29, 0.00, 176.66, 0.00
MOT, 0, 0, 0, 0
ATT, 122.00, 30.99, 0.00, 0.00, 0.00, 176.23, 0.00
MOT, 0, 0, 0, 0
ATT, 120.00, 32.38, 0.00, 0.19, 0.00, 175.81, 0.00
MOT, 0, 0, 0, 0
ATT, 118.00, 33.63, 0.00, 0.27, 0.00, 175.47, 0.00
MOT, 0, 0, 0, 0
ATT, 117.00, 34.75, 0.00, 0.29, 0.00, 175.14, 0.00
MOT, 0, 0, 0, 0
ATT, 114.00, 35.83, 0.00, 0.34, 0.00, 174.66, 0.00
MOT, 0, 0, 0, 0
ATT, 110.00, 36.86, 0.00, 0.47, 0.00, 174.06, 0.00
MOT, 0, 0, 0, 0
ATT, 111.00, 38.09, 0.00, 0.70, 0.00, 173.30, 0.00
MOT, 0, 0, 0, 0
ATT, 117.00, 39.44, 0.00, 1.03, 0.00, 172.62, 0.00
MOT, 0, 0, 0, 0
ATT, 125.00, 40.94, 0.00, 1.43, 0.00, 172.13, 0.00
MOT, 0, 0, 0, 0
ATT, 134.00, 42.51, 0.00, 1.84, 0.00, 171.87, 0.00
MOT, 0, 0, 0, 0
ATT, 138.00, 43.97, 0.00, 2.21, 0.00, 171.86, 0.00
MOT, 0, 0, 0, 0
ATT, 136.00, 45.54, 0.00, 2.66, 0.00, 172.01, 0.00
MOT, 0, 0, 0, 0
ATT, 126.00, 46.93, 0.00, 3.15, 0.00, 172.19, 0.00
MOT, 0, 0, 0, 0
ATT, 117.00, 48.21, 0.00, 3.71, 0.00, 172.30, 0.00
MOT, 0, 0, 0, 0
ATT, 111.00, 49.41, 0.00, 4.26, 0.00, 172.29, 0.00
MOT, 0, 0, 0, 0
ATT, 101.00, 50.46, 0.00, 4.80, 0.00, 172.19, 0.00
MOT, 0, 0, 0, 0
ATT, 76.00, 51.17, 0.00, 5.27, 0.00, 172.04, 0.00
MOT, 0, 0, 0, 0
ATT, 58.00, 51.71, 0.00, 5.71, 0.00, 171.93, 0.00
MOT, 0, 0, 0, 0
ATT, 61.00, 52.29, 0.00, 6.15, 0.00, 171.92, 0.00
MOT, 0, 0, 0, 0
ATT, 71.00, 53.09, 0.00, 6.63, 0.00, 172.03, 0.00
MOT, 0, 0, 0, 0
ATT, 81.00, 54.08, 0.00, 7.04, 0.00, 172.27, 0.00
MOT, 0, 0, 0, 0
ATT, 85.00, 55.06, 0.00, 7.32, 0.00, 172.59, 0.00
MOT, 0, 0, 0, 0
ATT, 83.00, 56.12, 0.00, 7.51, 0.00, 173.01, 0.00
MOT, 0, 0, 0, 0
ATT, 77.00, 56.98, 0.00, 7.56, 0.00, 173.43, 0.00
MOT, 0, 0, 0, 0
ATT, 62.00, 57.70, 0.00, 7.48, 0.00, 173.90, 0.00
MOT, 0, 0, 0, 0
ATT, 29.00, 57.99, 0.00, 7.32, 0.00, 174.24, 0.00
MOT, 0, 0, 0, 0
ATT, -14.00, 57.78, 0.00, 7.21, 0.00, 174.38, 0.00
MOT, 0, 0, 0, 0
ATT, -78.00, 56.79, 0.00, 7.10, 0.00, 174.39, 0.00
MOT, 0, 0, 0, 0
ATT, -152.00, 54.93, 0.00, 7.08, 0.00, 174.28, 0.00
MOT, 0, 0, 0, 0
ATT, -208.00, 52.27, 0.00, 7.16, 0.00, 174.13, 0.00
MOT, 0, 0, 0, 0
ATT, -241.00, 49.15, 0.00, 7.36, 0.00, 174.08, 0.00
MOT, 0, 0, 0, 0
ATT, -258.00, 45.81, 0.00, 7.64, 0.00, 174.27, 0.00
MOT, 0, 0, 0, 0
ATT, -270.00, 42.45, 0.00, 7.98, 0.00, 174.75, 0.00
MOT, 0, 0, 0, 0
ATT, -278.00, 39.40, 0.00, 8.25, 0.00, 175.43, 0.00
MOT, 0, 0, 0, 0
ATT, -298.00, 35.94, 0.00, 8.60, 0.00, 176.26, 0.00
MOT, 0, 0, 0, 0
ATT, 317.36, 32.29, 0.00, 9.01, 0.00, 177.03, 0.00
MOT, 0, 0, 0, 0
ATT, 264.36, 28.04, 0.00, 9.27, 0.00, 177.79, 0.00
MOT, 0, 0, 0, 0
ATT, 203.36, 24.03, 0.00, 8.95, 0.00, 178.57, 0.00
MOT, 0, 0, 0, 0
ATT, 172.36, 20.45, 0.00, 7.99, 0.00, 179.59, 0.00
MOT, 0, 0, 0, 0
ATT, 192.36, 17.35, 0.00, 6.83, 0.00, 180.73, 0.00
MOT, 0, 0, 0, 0
ATT, 277.36, 14.24, 0.00, 6.10, 0.00, 181.67, 0.00
MOT, 0, 0, 0, 0
ATT, -283.00, 10.50, 0.00, 6.15, 0.00, 182.31, 0.00
MOT, 0, 0, 0, 0
ATT, -238.00, 7.68, 0.00, 6.89, 0.00, 182.76, 0.00
MOT, 0, 0, 0, 0
ATT, -233.00, 5.13, 0.00, 8.23, 0.00, 183.15, 0.00
MOT, 0, 0, 0, 0
ATT, -224.00, 3.00, 0.00, 9.82, 0.00, 183.53, 0.00
MOT, 0, 0, 0, 0
ATT, -185.00, 1.16, 0.00, 11.61, 0.00, 183.75, 0.00
MOT, 0, 0, 0, 0
ATT, -144.00, -0.54, 0.00, 13.63, 0.00, 183.75, 0.00
MOT, 0, 0, 0, 0
ATT, -128.00, -2.00, 0.00, 15.24, 0.00, 183.64, 0.00
MOT, 0, 0, 0, 0
ATT, -141.00, -3.37, 0.00, 16.29, 0.00, 183.30, 0.00
MOT, 0, 0, 0, 0
ATT, -170.00, -4.89, 0.00, 17.06, 0.00, 183.18, 0.00
MOT, 0, 0, 0, 0
ATT, -201.00, -6.58, 0.00, 17.75, 0.00, 183.25, 0.00
MOT, 0, 0, 0, 0
ATT, -182.00, -8.11, 0.00, 18.39, 0.00, 183.14, 0.00
MOT, 0, 0, 0, 0
ATT, -151.00, -10.08, 0.00, 19.22, 0.00, 182.25, 0.00
MOT, 0, 0, 0, 0
ATT, -133.00, -11.98, 0.00, 20.79, 0.00, 180.80, 0.00
MOT, 0, 0, 0, 0
ATT, -118.00, -13.81, 0.00, 23.14, 0.00, 179.12, 0.00
MOT, 0, 0, 0, 0
ATT, -98.00, -15.55, 0.00, 26.08, 0.00, 177.45, 0.00
MOT, 0, 0, 0, 0
ATT, -89.00, -17.27, 0.00, 29.41, 0.00, 175.95, 0.00
MOT, 0, 0, 0, 0
ATT, -84.00, -18.96, 0.00, 32.91, 0.00, 174.61, 0.00
MOT, 0, 0, 0, 0
ATT, -80.00, -20.55, 0.00, 36.36, 0.00, 173.35, 0.00
MOT, 0, 0, 0, 0
ATT, -89.00, -21.79, 0.00, 39.25, 0.00, 172.41, 0.00
MOT, 0, 0, 0, 0
ATT, -91.00, -23.05, 0.00, 42.17, 0.00, 171.48, 0.00
MOT, 0, 0, 0, 0
ATT, -76.00, -24.38, 0.00, 44.92, 0.00, 170.35, 0.00
MOT, 0, 0, 0, 0
ATT, -54.00, -26.03, 0.00, 47.57, 0.00, 168.75, 0.00
MOT, 0, 0, 0, 0
ATT, -34.00, -27.74, 0.00, 50.20, 0.00, 166.80, 0.00
MOT, 0, 0, 0, 0
ATT, -24.00, -29.74, 0.00, 52.77, 0.00, 164.45, 0.00
MOT, 0, 0, 0, 0
ATT, -34.00, -32.41, 0.00, 55.19, 0.00, 161.60, 0.00
MOT, 0, 0, 0, 0
ATT, -54.00, -36.05, 0.00, 57.42, 0.00, 158.06, 0.00
MOT, 0, 0, 0, 0
ATT, -70.00, -40.57, 0.00, 59.36, 0.00, 153.83, 0.00
MOT, 0, 0, 0, 0
ATT, -83.00, -45.14, 0.00, 61.05, 0.00, 149.59, 0.00
MOT, 0, 0, 0, 0
ATT, -95.00, -49.33, 0.00, 62.41, 0.00, 145.77, 0.00
MOT, 0, 0, 0, 0
ATT, -107.00, -54.53, 0.00, 63.54, 0.00, 141.10, 0.00
MOT, 0, 0, 0, 0
ATT, -125.00, -60.25, 0.00, 64.07, 0.00, 136.09, 0.00
MOT, 0, 0, 0, 0
ATT, -147.00, -65.61, 0.00, 63.98, 0.00, 131.64, 0.00
MOT, 0, 0, 0, 0
ATT, -165.00, -70.25, 0.00, 63.89, 0.00, 128.08, 0.00
MOT, 0, 0, 0, 0
ATT, -192.00, -74.75, 0.00, 64.03, 0.00, 125.05, 0.00
MOT, 0, 0, 0, 0
ATT, -247.00, -79.72, 0.00, 64.10, 0.00, 122.26, 0.00
MOT, 0, 0, 0, 0
ATT, 323.36, -85.09, 0.00, 63.61, 0.00, 120.04, 0.00
MOT, 0, 0, 0, 0
ATT, 247.36, -90.81, 0.00, 62.34, 0.00, 118.38, 0.00
MOT, 0, 0, 0, 0
ATT, 216.36, -96.61, 0.00, 60.48, 0.00, 117.05, 0.00
MOT, 0, 0, 0, 0
ATT, 242.36, -101.76, 0.00, 58.39, 0.00, 116.27, 0.00
MOT, 0, 0, 0, 0
ATT, 265.36, -106.28, 0.00, 56.94, 0.00, 116.13, 0.00
MOT, 0, 0, 0, 0
ATT, 241.36, -110.32, 0.00, 56.60, 0.00, 116.65, 0.00
MOT, 0, 0, 0, 0
ATT, 161.36, -115.05, 0.00, 57.42, 0.00, 118.15, 0.00
MOT, 0, 0, 0, 0
ATT, 70.36, -120.25, 0.00, 59.66, 0.00, 120.39, 0.00
MOT, 0, 0, 0, 0
ATT, 23.36, -126.07, 0.00, 62.41, 0.00, 122.76, 0.00
MOT, 0, 0, 0, 0
ATT, 66.36, -131.46, 0.00, 64.29, 0.00, 125.15, 0.00
MOT, 0, 0, 0, 0
ATT, 157.36, -134.96, 0.00, 65.16, 0.00, 128.48, 0.00
MOT, 0, 0, 0, 0
ATT, 231.36, -137.52, 0.00, 65.31, 0.00, 131.88, 0.00
MOT, 0, 0, 0, 0
ATT, 293.36, -140.27, 0.00, 65.13, 0.00, 134.42, 0.00
MOT, 0, 0, 0, 0
ATT, -311.00, -142.90, 0.00, 64.19, 0.00, 136.41, 0.00
MOT, 0, 0, 0, 0
ATT, -268.00, -143.58, 0.00, 61.96, 0.00, 139.74, 0.00
MOT, 0, 0, 0, 0
ATT, -229.00, -142.49, 0.00, 58.59, 0.00, 144.35, 0.00
MOT, 0, 0, 0, 0
ATT, -195.00, -140.65, 0.00, 54.87, 0.00, 149.48, 0.00
MOT, 0, 0, 0, 0
ATT, -116.00, -138.67, 0.00, 51.76, 0.00, 154.01, 0.00
MOT, 0, 0, 0, 0
ATT, -27.00, -137.06, 0.00, 48.72, 0.00, 157.32, 0.00
MOT, 0, 0, 0, 0
ATT, 26.00, -135.65, 0.00, 46.32, 0.00, 159.79, 0.00
MOT, 0, 0, 0, 0
ATT, 55.00, -134.21, 0.00, 44.80, 0.00, 161.86, 0.00
MOT, 0, 0, 0, 0
ATT, 72.00, -132.88, 0.00, 43.43, 0.00, 163.54, 0.00
MOT, 0, 0, 0, 0
ATT, 79.00, -131.92, 0.00, 41.35, 0.00, 164.81, 0.00
MOT, 0, 0, 0, 0
ATT, 70.00, -131.32, 0.00, 38.75, 0.00, 165.87, 0.00
MOT, 0, 0, 0, 0
ATT, 59.00, -130.40, 0.00, 35.80, 0.00, 167.52, 0.00
MOT, 0, 0, 0, 0
ATT, 69.00, -128.93, 0.00, 32.91, 0.00, 169.88, 0.00
MOT, 0, 0, 0, 0
ATT, 88.00, -127.35, 0.00, 30.15, 0.00, 172.39, 0.00
MOT, 0, 0, 0, 0
ATT, 105.00, -125.89, 0.00, 26.93, 0.00, 175.19, 0.00
MOT, 0, 0, 0, 0
ATT, 133.00, -124.42, 0.00, 23.19, 0.00, 178.15, 0.00
MOT, 0, 0, 0, 0
ATT, 176.00, -122.81, 0.00, 18.68, 0.00, 181.30, 0.00
MOT, 0, 0, 0, 0
ATT, 205.00, -121.84, 0.00, 14.38, 0.00, 184.15, 0.00
MOT, 0, 0, 0, 0
ATT, 207.00, -121.46, 0.00, 10.11, 0.00, 187.25, 0.00
MOT, 0, 0, 0, 0
ATT, 228.00, -120.89, 0.00, 6.10, 0.00, 190.26, 0.00
MOT, 0, 0, 0, 0
ATT, 274.00, -119.48, 0.00, 1.81, 0.00, 193.01, 0.00
MOT, 0, 0, 0, 0
ATT, 325.00, -117.60, 0.00, -2.53, 0.00, 195.17, 0.00
MOT, 0, 0, 0, 0
ATT, -272.36, -114.67, 0.00, -7.65, 0.00, 196.52, 0.00
MOT, 0, 0, 0, 0
ATT, -217.36, -110.55, 0.00, -13.80, 0.00, 197.20, 0.00
MOT, 0, 0, 0, 0
ATT, -198.36, -105.41, 0.00, -20.23, 0.00, 197.31, 0.00
MOT, 0, 0, 0, 0
ATT, -202.36, -99.26, 0.00, -26.87, 0.00, 196.69, 0.00
MOT, 0, 0, 0, 0
ATT, -158.36, -92.34, 0.00, -32.60, 0.00, 195.51, 0.00
MOT, 0, 0, 0, 0
ATT, -72.36, -85.10, 0.00, -37.20, 0.00, 193.92, 0.00
MOT, 0, 0, 0, 0
ATT, 46.64, -76.04, 0.00, -41.28, 0.00, 191.03, 0.00
MOT, 0, 0, 0, 0
ATT, 131.64, -64.00, 0.00, -44.05, 0.00, 185.69, 0.00
MOT, 0, 0, 0, 0
ATT, 166.64, -45.76, 0.00, -44.06, 0.00, 176.35, 0.00
MOT, 0, 0, 0, 0
ATT, 180.64, -27.85, 0.00, -40.08, 0.00, 168.04, 0.00
MOT, 0, 0, 0, 0
ATT, 168.64, -12.82, 0.00, -34.74, 0.00, 162.34, 0.00
MOT, 0, 0, 0, 0
ATT, 160.64, -1.24, 0.00, -29.50, 0.00, 159.15, 0.00
MOT, 0, 0, 0, 0
ATT, 170.64, 9.51, 0.00, -23.65, 0.00, 157.70, 0.00
MOT, 0, 0, 0, 0
ATT, 178.64, 18.71, 0.00, -18.57, 0.00, 158.42, 0.00
MOT, 0, 0, 0, 0
ATT, 144.64, 27.57, 0.00, -14.39, 0.00, 160.99, 0.00
MOT, 0, 0, 0, 0
ATT, 47.64, 35.45, 0.00, -11.93, 0.00, 164.52, 0.00
MOT, 0, 0, 0, 0
ATT, -43.36, 41.37, 0.00, -9.91, 0.00, 167.65, 0.00
MOT, 0, 0, 0, 0
ATT, -79.36, 44.80, 0.00, -7.86, 0.00, 170.04, 0.00
MOT, 0, 0, 0, 0
ATT, -93.36, 47.22, 0.00, -6.06, 0.00, 172.43, 0.00
MOT, 0, 0, 0, 0
ATT, -145.36, 48.72, 0.00, -4.59, 0.00, 174.53, 0.00
MOT, 0, 0, 0, 0
ATT, -203.36, 49.85, 0.00, -3.65, 0.00, 176.34, 0.00
MOT, 0, 0, 0, 0
ATT, -240.36, 50.94, 0.00, -3.41, 0.00, 177.97, 0.00
MOT, 0, 0, 0, 0
ATT, -275.36, 52.61, 0.00, -3.85, 0.00, 179.45, 0.00
MOT, 0, 0, 0, 0
ATT, -315.36, 54.91, 0.00, -5.00, 0.00, 180.78, 0.00
MOT, 0, 0, 0, 0
ATT, 299.00, 57.58, 0.00, -6.71, 0.00, 181.86, 0.00
MOT, 0, 0, 0, 0
ATT, 246.00, 60.16, 0.00, -8.60, 0.00, 182.58, 0.00
MOT, 0, 0, 0, 0
ATT, 190.00, 62.08, 0.00, -10.20, 0.00, 183.00, 0.00
MOT, 0, 0, 0, 0
ATT, 114.00, 63.00, 0.00, -11.20, 0.00, 183.21, 0.00
MOT, 0, 0, 0, 0
ATT, 15.00, 62.65, 0.00, -11.49, 0.00, 183.28, 0.00
MOT, 0, 0, 0, 0
ATT, -87.00, 61.26, 0.00, -11.69, 0.00, 183.40, 0.00
MOT, 0, 0, 0, 0
ATT, -182.00, 59.00, 0.00, -11.77, 0.00, 183.68, 0.00
MOT, 0, 0, 0, 0
ATT, -264.00, 55.30, 0.00, -11.68, 0.00, 184.14, 0.00
MOT, 0, 0, 0, 0
ATT, 316.36, 50.69, 0.00, -11.59, 0.00, 184.40, 0.00
MOT, 0, 0, 0, 0
ATT, 248.36, 45.95, 0.00, -11.10, 0.00, 183.98, 0.00
MOT, 0, 0, 0, 0
ATT, 180.36, 41.49, 0.00, -9.84, 0.00, 182.64, 0.00
MOT, 0, 0, 0, 0
ATT, 127.36, 37.33, 0.00, -7.69, 0.00, 180.73, 0.00
MOT, 0, 0, 0, 0
ATT, 73.36, 32.71, 0.00, -4.93, 0.00, 178.78, 0.00
MOT, 0, 0, 0, 0
ATT, 24.36, 27.10, 0.00, -2.73, 0.00, 177.27, 0.00
MOT, 0, 0, 0, 0
ATT, 17.36, 20.53, 0.00, -1.91, 0.00, 176.40, 0.00
MOT, 0, 0, 0, 0
ATT, 17.36, 14.48, 0.00, -2.62, 0.00, 176.49, 0.00
MOT, 0, 0, 0, 0
ATT, 18.36, 8.20, 0.00, -4.75, 0.00, 178.15, 0.00
MOT, 0, 0, 0, 0
ATT, 18.36, 1.68, 0.00, -7.67, 0.00, 181.24, 0.00
MOT, 0, 0, 0, 0
ATT, 17.36, -5.23, 0.00, -10.31, 0.00, 184.61, 0.00
MOT, 0, 0, 0, 0
ATT, 18.36, -12.15, 0.00, -12.01, 0.00, 186.64, 0.00
MOT, 0, 0, 0, 0
ATT, 18.36, -20.18, 0.00, -12.92, 0.00, 186.27, 0.00
MOT, 0, 0, 0, 0
ATT, 17.36, -26.96, 0.00, -13.27, 0.00, 182.95, 0.00
MOT, 0, 0, 0, 0
ATT, 18.36, -31.71, 0.00, -13.82, 0.00, 177.91, 0.00
MOT, 0, 0, 0, 0
ATT, 44.36, -34.98, 0.00, -14.22, 0.00, 173.52, 0.00
MOT, 0, 0, 0, 0
ATT, 84.36, -38.25, 0.00, -14.36, 0.00, 169.73, 0.00
MOT, 0, 0, 0, 0
ATT, 125.36, -40.98, 0.00, -13.90, 0.00, 166.69, 0.00
MOT, 0, 0, 0, 0
ATT, 68.36, -43.82, 0.00, -13.10, 0.00, 166.10, 0.00
MOT, 0, 0, 0, 0
ATT, 17.36, -46.47, 0.00, -11.77, 0.00, 167.36, 0.00
MOT, 0, 0, 0, 0
ATT, 30.36, -49.03, 0.00, -8.72, 0.00, 169.43, 0.00
MOT, 0, 0, 0, 0
ATT, 127.36, -50.36, 0.00, -4.89, 0.00, 171.46, 0.00
MOT, 0, 0, 0, 0
ATT, 240.36, -52.80, 0.00, -3.94, 0.00, 172.70, 0.00
MOT, 0, 0, 0, 0
ATT, 257.36, -57.73, 0.00, -6.71, 0.00, 172.60, 0.00
MOT, 0, 0, 0, 0
ATT, 213.36, -63.80, 0.00, -10.60, 0.00, 171.14, 0.00
MOT, 0, 0, 0, 0
ATT, 219.36, -70.11, 0.00, -14.81, 0.00, 169.54, 0.00
MOT, 0, 0, 0, 0
ATT, 291.36, -76.10, 0.00, -18.41, 0.00, 168.79, 0.00
MOT, 0, 0, 0, 0
ATT, -310.00, -81.81, 0.00, -21.05, 0.00, 169.22, 0.00
MOT, 0, 0, 0, 0
ATT, -290.00, -86.93, 0.00, -21.28, 0.00, 170.38, 0.00
MOT, 0, 0, 0, 0
ATT, -300.00, -92.25, 0.00, -20.04, 0.00, 171.87, 0.00
MOT, 0, 0, 0, 0
ATT, -307.00, -98.28, 0.00, -18.57, 0.00, 173.09, 0.00
MOT, 0, 0, 0, 0
ATT, -281.00, -103.87, 0.00, -17.52, 0.00, 173.74, 0.00
MOT, 0, 0, 0, 0
ATT, -227.00, -108.13, 0.00, -17.67, 0.00, 174.18, 0.00
MOT, 0, 0, 0, 0
ATT, -198.00, -111.75, 0.00, -18.38, 0.00, 174.74, 0.00
MOT, 0, 0, 0, 0
ATT, -159.00, -115.13, 0.00, -19.04, 0.00, 175.35, 0.00
MOT, 0, 0, 0, 0
ATT, -100.00, -117.51, 0.00, -19.61, 0.00, 175.52, 0.00
MOT, 0, 0, 0, 0
ATT, -50.00, -118.73, 0.00, -19.90, 0.00, 175.20, 0.00
MOT, 0, 0, 0, 0
ATT, -5.00, -119.11, 0.00, -19.74, 0.00, 174.65, 0.00
MOT, 0, 0, 0, 0
ATT, 60.00, -118.70, 0.00, -19.09, 0.00, 174.02, 0.00
MOT, 0, 0, 0, 0
ATT, 149.00, -117.63, 0.00, -18.00, 0.00, 173.37, 0.00
MOT, 0, 0, 0, 0
ATT, 247.00, -116.18, 0.00, -16.57, 0.00, 172.75, 0.00
MOT, 0, 0, 0, 0
ATT, -301.36, -114.47, 0.00, -14.92, 0.00, 172.41, 0.00
MOT, 0, 0, 0, 0
ATT, -212.36, -112.75, 0.00, -13.27, 0.00, 172.57, 0.00
MOT, 0, 0, 0, 0
ATT, -132.36, -110.99, 0.00, -12.08, 0.00, 173.27, 0.00
MOT, 0, 0, 0, 0
ATT, -65.36, -108.68, 0.00, -10.93, 0.00, 174.35, 0.00
MOT, 0, 0, 0, 0
ATT, 1.64, -105.60, 0.00, -10.11, 0.00, 175.48, 0.00
MOT, 0, 0, 0, 0
ATT, 83.64, -101.65, 0.00, -9.17, 0.00, 176.53, 0.00
MOT, 0, 0, 0, 0
ATT, 171.64, -96.15, 0.00, -7.77, 0.00, 177.34, 0.00
MOT, 0, 0, 0, 0
ATT, 251.64, -88.64, 0.00, -6.63, 0.00, 177.68, 0.00
MOT, 0, 0, 0, 0
ATT, 265.64, -77.02, 0.00, -5.08, 0.00, 177.48, 0.00
MOT, 0, 0, 0, 0
ATT, 247.64, -62.66, 0.00, -2.12, 0.00, 177.17, 0.00
MOT, 0, 0, 0, 0
ATT, 248.64, -49.94, 0.00, 0.66, 0.00, 177.42, 0.00
MOT, 0, 0, 0, 0
ATT, 276.64, -36.16, 0.00, 4.06, 0.00, 178.61, 0.00
MOT, 0, 0, 0, 0
ATT, 308.64, -22.00, 0.00, 6.87, 0.00, 180.57, 0.00
MOT, 0, 0, 0, 0
ATT, -319.72, -7.27, 0.00, 8.56, 0.00, 182.84, 0.00
MOT, 0, 0, 0, 0
ATT, -319.72, 5.24, 0.00, 9.80, 0.00, 184.52, 0.00
MOT, 0, 0, 0, 0
ATT, 172.64, 16.25, 0.00, 9.75, 0.00, 185.23, 0.00
MOT, 0, 0, 0, 0
ATT, -153.36, 22.26, 0.00, 10.01, 0.00, 183.46, 0.00
MOT, 0, 0, 0, 0
ATT, -321.36, 24.58, 0.00, 12.02, 0.00, 180.40, 0.00
MOT, 0, 0, 0, 0
ATT, -285.36, 25.20, 0.00, 15.33, 0.00, 177.91, 0.00
MOT, 0, 0, 0, 0
ATT, -214.36, 25.93, 0.00, 19.02, 0.00, 176.95, 0.00
MOT, 0, 0, 0, 0
ATT, -188.36, 28.80, 0.00, 21.43, 0.00, 178.18, 0.00
MOT, 0, 0, 0, 0
ATT, -167.36, 34.00, 0.00, 21.75, 0.00, 181.07, 0.00
MOT, 0, 0, 0, 0
ATT, -144.36, 40.75, 0.00, 20.42, 0.00, 184.48, 0.00
MOT, 0, 0, 0, 0
ATT, -144.36, 47.96, 0.00, 17.20, 0.00, 187.37, 0.00
MOT, 0, 0, 0, 0
ATT, -205.36, 54.95, 0.00, 13.08, 0.00, 189.53, 0.00
MOT, 0, 0, 0, 0
ATT, -294.36, 60.30, 0.00, 8.92, 0.00, 190.98, 0.00
MOT, 0, 0, 0, 0
ATT, 271.00, 63.61, 0.00, 5.40, 0.00, 191.35, 0.00
MOT, 0, 0, 0, 0
ATT, 235.00, 65.27, 0.00, 3.77, 0.00, 190.91, 0.00
MOT, 0, 0, 0, 0
ATT, 243.00, 67.04, 0.00, 2.95, 0.00, 190.29, 0.00
MOT, 0, 0, 0, 0
ATT, 250.00, 68.76, 0.00, 2.96, 0.00, 189.78, 0.00
MOT, 0, 0, 0, 0
ATT, 218.00, 70.21, 0.00, 3.30, 0.00, 189.52, 0.00
MOT, 0, 0, 0, 0
ATT, 173.00, 71.30, 0.00, 3.30, 0.00, 189.31, 0.00
MOT, 0, 0, 0, 0
ATT, 116.00, 71.91, 0.00, 2.97, 0.00, 189.10, 0.00
MOT, 0, 0, 0, 0
ATT, 53.00, 72.00, 0.00, 2.35, 0.00, 189.03, 0.00
MOT, 0, 0, 0, 0
ATT, -13.00, 71.48, 0.00, 1.54, 0.00, 189.15, 0.00
MOT, 0, 0, 0, 0
ATT, -83.00, 70.19, 0.00, 0.71, 0.00, 189.39, 0.00
MOT, 0, 0, 0, 0
ATT, -148.00, 68.01, 0.00, 0.16, 0.00, 189.59, 0.00
MOT, 0, 0, 0, 0
ATT, -209.00, 65.03, 0.00, 0.19, 0.00, 189.69, 0.00
MOT, 0, 0, 0, 0
ATT, -265.00, 61.49, 0.00, 0.69, 0.00, 189.76, 0.00
MOT, 0, 0, 0, 0
ATT, -310.00, 57.64, 0.00, 1.42, 0.00, 189.81, 0.00
MOT, 0, 0, 0, 0
ATT, -320.00, 53.99, 0.00, 2.46, 0.00, 189.92, 0.00
MOT, 0, 0, 0, 0
ATT, -300.00, 50.89, 0.00, 3.21, 0.00, 190.30, 0.00
MOT, 0, 0, 0, 0
ATT, -275.00, 48.32, 0.00, 3.08, 0.00, 190.91, 0.00
MOT, 0, 0, 0, 0
ATT, -270.00, 46.07, 0.00, 2.57, 0.00, 191.54, 0.00
MOT, 0, 0, 0, 0
ATT, -283.00, 43.26, 0.00, 1.89, 0.00, 192.21, 0.00
MOT, 0, 0, 0, 0
ATT, -301.00, 40.01, 0.00, 0.92, 0.00, 192.79, 0.00
MOT, 0, 0, 0, 0
ATT, -323.00, 36.49, 0.00, -0.48, 0.00, 193.29, 0.00
MOT, 0, 0, 0, 0
ATT, 307.36, 32.83, 0.00, -2.06, 0.00, 193.74, 0.00
MOT, 0, 0, 0, 0
ATT, 290.36, 29.46, 0.00, -3.65, 0.00, 194.08, 0.00
MOT, 0, 0, 0, 0
ATT, 283.36, 25.76, 0.00, -5.43, 0.00, 194.38, 0.00
MOT, 0, 0, 0, 0
ATT, 289.36, 22.20, 0.00, -6.75, 0.00, 194.40, 0.00
MOT, 0, 0, 0, 0
ATT, 314.36, 18.60, 0.00, -7.71, 0.00, 194.02, 0.00
MOT, 0, 0, 0, 0
ATT, -295.00, 15.04, 0.00, -8.47, 0.00, 193.10, 0.00
MOT, 0, 0, 0, 0
ATT, -264.00, 11.68, 0.00, -9.17, 0.00, 191.63, 0.00
MOT, 0, 0, 0, 0
ATT, -259.00, 8.83, 0.00, -9.76, 0.00, 189.95, 0.00
MOT, 0, 0, 0, 0
ATT, -267.00, 6.27, 0.00, -10.04, 0.00, 188.59, 0.00
MOT, 0, 0, 0, 0
ATT, -280.00, 3.75, 0.00, -10.04, 0.00, 187.79, 0.00
MOT, 0, 0, 0, 0
ATT, -233.00, 1.36, 0.00, -9.93, 0.00, 187.65, 0.00
MOT, 0, 0, 0, 0
ATT, -199.00, -0.88, 0.00, -9.59, 0.00, 187.68, 0.00
MOT, 0, 0, 0, 0
ATT, -185.00, -2.75, 0.00, -8.92, 0.00, 187.12, 0.00
MOT, 0, 0, 0, 0
ATT, -182.00, -4.10, 0.00, -7.94, 0.00, 186.06, 0.00
MOT, 0, 0, 0, 0
ATT, -157.00, -4.85, 0.00, -6.76, 0.00, 185.16, 0.00
MOT, 0, 0, 0, 0
ATT, -132.00, -5.43, 0.00, -5.78, 0.00, 184.79, 0.00
MOT, 0, 0, 0, 0
ATT, -103.00, -6.04, 0.00, -5.21, 0.00, 184.77, 0.00
MOT, 0, 0, 0, 0
ATT, -64.00, -6.62, 0.00, -4.74, 0.00, 184.92, 0.00
MOT, 0, 0, 0, 0
ATT, -37.00, -7.16, 0.00, -4.21, 0.00, 185.18, 0.00
MOT, 0, 0, 0, 0
ATT, -22.00, -7.56, 0.00, -3.76, 0.00, 185.47, 0.00
MOT, 0, 0, 0, 0
ATT, -13.00, -7.82, 0.00, -3.53, 0.00, 185.80, 0.00
MOT, 0, 0, 0, 0
ATT, -13.00, -8.01, 0.00, -3.61, 0.00, 186.19, 0.00
MOT, 0, 0, 0, 0
ATT, -24.00, -8.23, 0.00, -3.91, 0.00, 186.46, 0.00
MOT, 0, 0, 0, 0
ATT, -32.00, -8.51, 0.00, -4.34, 0.00, 186.49, 0.00
MOT, 0, 0, 0, 0
ATT, -35.00, -8.84, 0.00, -4.74, 0.00, 186.09, 0.00
MOT, 0, 0, 0, 0
ATT, -25.00, -9.06, 0.00, -5.00, 0.00, 185.37, 0.00
MOT, 0, 0, 0, 0
ATT, -4.00, -9.12, 0.00, -5.10, 0.00, 184.66, 0.00
MOT, 0, 0, 0, 0
ATT, 22.00, -8.89, 0.00, -5.05, 0.00, 184.26, 0.00
MOT, 0, 0, 0, 0
ATT, 49.00, -8.42, 0.00, -4.92, 0.00, 184.25, 0.00
MOT, 0, 0, 0, 0
ATT, 108.00, -7.24, 0.00, -4.05, 0.00, 184.55, 0.00
MOT, 0, 0, 0, 0
ATT, 104.00, -6.24, 0.00, -2.41, 0.00, 184.76, 0.00
MOT, 0, 0, 0, 0
ATT, 90.00, -5.27, 0.00, -0.37, 0.00, 184.88, 0.00
MOT, 0, 0, 0, 0
ATT, 87.00, -4.39, 0.00, 1.40, 0.00, 185.05, 0.00
MOT, 0, 0, 0, 0
ATT, 149.00, -3.00, 0.00, 2.22, 0.00, 185.15, 0.00
MOT, 0, 0, 0, 0
ATT, 165.00, -1.54, 0.00, 2.31, 0.00, 185.21, 0.00
MOT, 0, 0, 0, 0
ATT, 156.00, 0.01, 0.00, 2.28, 0.00, 185.45, 0.00
MOT, 0, 0, 0, 0
ATT, 102.00, 1.02, 0.00, 2.24, 0.00, 185.72, 0.00
MOT, 0, 0, 0, 0
ATT, 5.00, 1.11, 0.00, 2.22, 0.00, 186.07, 0.00
MOT, 0, 0, 0, 0
ATT, 22.00, 1.41, 0.00, 2.19, 0.00, 186.32, 0.00
MOT, 0, 0, 0, 0
ATT, 8.00, 1.59, 0.00, 2.15, 0.00, 186.34, 0.00
MOT, 0, 0, 0, 0
ATT, 10.00, 1.74, 0.00, 2.14, 0.00, 186.33, 0.00
MOT, 0, 0, 0, 0
ATT, 2.00, 1.74, 0.00, 2.13, 0.00, 186.33, 0.00
MOT, 0, 0, 0, 0
ATT, 1.00, 1.75, 0.00, 2.11, 0.00, 186.33, 0.00
MOT, 0, 0, 0, 0
ATT, 1.00, 1.74, 0.00, 2.11, 0.00, 186.33, 0.00
MOT, 0, 0, 0, 0
ATT, 0.00, 1.73, 0.00, 2.11, 0.00, 186.33, 0.00
MOT, 0, 0, 0, 0
ATT, 0.00, 1.71, 0.00, 2.10, 0.00, 186.33, 0.00
MOT, 0, 0, 0, 0
ATT, 0.00, 1.69, 0.00, 2.10, 0.00, 186.33, 0.00
MOT, 0, 0, 0, 0
ATT, 0.00, 1.68, 0.00, 2.10, 0.00, 186.33, 0.00
MOT, 0, 0, 0, 0
ATT, 0.00, 1.66, 0.00, 2.09, 0.00, 186.33, 0.00
MOT, 0, 0, 0, 0
ATT, 0.00, 1.65, 0.00, 2.09, 0.00, 186.33, 0.00
MOT, 0, 0, 0, 0
ATT, 0.00, 1.64, 0.00, 2.09, 0.00, 186.33, 0.00
MOT, 0, 0, 0, 0
ATT, 0.00, 1.62, 0.00, 2.08, 0.00, 186.33, 0.00
MOT, 0, 0, 0, 0
ATT, 0.00, 1.61, 0.00, 2.08, 0.00, 186.33, 0.00
MOT, 0, 0, 0, 0
ATT, 0.00, 1.59, 0.00, 2.07, 0.00, 186.33, 0.00
MOT, 0, 0, 0, 0
ATT, 0.00, 1.57, 0.00, 2.07, 0.00, 186.33, 0.00
MOT, 0, 0, 0, 0
ATT, 0.00, 1.55, 0.00, 2.07, 0.00, 186.33, 0.00
MOT, 0, 0, 0, 0
ATT, 0.00, 1.53, 0.00, 2.07, 0.00, 186.33, 0.00
MOT, 0, 0, 0, 0
ATT, 0.00, 1.51, 0.00, 2.06, 0.00, 186.32, 0.00
MOT, 0, 0, 0, 0
ATT, 0.00, 1.49, 0.00, 2.06, 0.00, 186.32, 0.00
MOT, 0, 0, 0, 0
ATT, 0.00, 1.48, 0.00, 2.05, 0.00, 186.32, 0.00
MOT, 0, 0, 0, 0
ATT, 0.00, 1.46, 0.00, 2.05, 0.00, 186.32, 0.00
MOT, 0, 0, 0, 0
ATT, 0.00, 1.45, 0.00, 2.05, 0.00, 186.32, 0.00
MOT, 0, 0, 0, 0
ATT, 0.00, 1.43, 0.00, 2.04, 0.00, 186.32, 0.00
MOT, 0, 0, 0, 0
ATT, 0.00, 1.41, 0.00, 2.04, 0.00, 186.32, 0.00
MOT, 0, 0, 0, 0
ATT, 0.00, 1.39, 0.00, 2.04, 0.00, 186.32, 0.00
MOT, 0, 0, 0, 0
ATT, 0.00, 1.37, 0.00, 2.03, 0.00, 186.32, 0.00
MOT, 0, 0, 0, 0
ATT, 0.00, 1.36, 0.00, 2.03, 0.00, 186.32, 0.00
MOT, 0, 0, 0, 0
ATT, 0.00, 1.34, 0.00, 2.03, 0.00, 186.32, 0.00
MOT, 0, 0, 0, 0
ATT, 0.00, 1.32, 0.00, 2.02, 0.00, 186.32, 0.00
MOT, 0, 0, 0, 0
ATT, 0.00, 1.30, 0.00, 2.02, 0.00, 186.32, 0.00
MOT, 0, 0, 0, 0
ATT, 0.00, 1.29, 0.00, 2.02, 0.00, 186.32, 0.00
MOT, 0, 0, 0, 0
ATT, 0.00, 1.27, 0.00, 2.01, 0.00, 186.32, 0.00
MOT, 0, 0, 0, 0
ATT, 0.00, 1.25, 0.00, 2.01, 0.00, 186.32, 0.00
MOT, 0, 0, 0, 0
ATT, 0.00, 1.24, 0.00, 2.00, 0.00, 186.33, 0.00
MOT, 0, 0, 0, 0
ATT, 0.00, 1.22, 0.00, 2.00, 0.00, 186.33, 0.00
MOT, 0, 0, 0, 0
ATT, 0.00, 1.20, 0.00, 1.99, 0.00, 186.32, 0.00
MOT, 0, 0, 0, 0
ATT, 0.00, 1.19, 0.00, 1.99, 0.00, 186.32, 0.00
MOT, 0, 0, 0, 0
ATT, 0.00, 1.18, 0.00, 1.99, 0.00, 186.32, 0.00
MOT, 0, 0, 0, 0
ATT, 9.00, 1.26, 0.00, 1.96, 0.00, 186.24, 0.00
MOT, 0, 0, 0, 0
ATT, 10.00, 1.34, 0.00, 1.90, 0.00, 185.95, 0.00
MOT, 0, 0, 0, 0
ATT, -2.00, 1.33, 0.00, 1.86, 0.00, 185.55, 0.00
MOT, 0, 0, 0, 0
ATT, -5.00, 1.30, 0.00, 1.77, 0.00, 184.88, 0.00
MOT, 0, 0, 0, 0
ATT, 9.00, 1.56, 0.00, 1.64, 0.00, 185.03, 0.00
MOT, 0, 0, 0, 0
ATT, 7.00, 1.84, 0.00, 1.51, 0.00, 185.29, 0.00
MOT, 0, 0, 0, 0
ATT, 5.00, 2.02, 0.00, 1.39, 0.00, 185.37, 0.00
MOT, 0, 0, 0, 0
ATT, 0.00, 2.11, 0.00, 1.34, 0.00, 185.36, 0.00
MOT, 0, 0, 0, 0
ATT, 0.00, 2.12, 0.00, 1.33, 0.00, 185.34, 0.00
MOT, 0, 0, 0, 0
ATT, 6.00, 2.17, 0.00, 1.36, 0.00, 185.31, 0.00
MOT, 0, 0, 0, 0
ATT, 11.00, 2.29, 0.00, 1.39, 0.00, 185.25, 0.00
MOT, 0, 0, 0, 0
ATT, 15.00, 2.46, 0.00, 1.41, 0.00, 185.06, 0.00
MOT, 0, 0, 0, 0
ATT, 25.00, 2.70, 0.00, 1.42, 0.00, 184.67, 0.00
MOT, 0, 0, 0, 0
ATT, 42.00, 3.13, 0.00, 1.39, 0.00, 183.93, 0.00
MOT, 0, 0, 0, 0
ATT, 50.00, 3.67, 0.00, 1.38, 0.00, 182.97, 0.00
MOT, 0, 0, 0, 0
ATT, 45.00, 4.16, 0.00, 1.29, 0.00, 181.85, 0.00
MOT, 0, 0, 0, 0
ATT, 37.00, 4.51, 0.00, 1.13, 0.00, 180.69, 0.00
MOT, 0, 0, 0, 0
ATT, 35.00, 4.86, 0.00, 0.92, 0.00, 179.55, 0.00
MOT, 0, 0, 0, 0
ATT, 31.00, 5.13, 0.00, 0.74, 0.00, 178.59, 0.00
MOT, 0, 0, 0, 0
ATT, 27.00, 5.39, 0.00, 0.66, 0.00, 177.70, 0.00
MOT, 0, 0, 0, 0
ATT, 27.00, 5.64, 0.00, 0.71, 0.00, 177.01, 0.00
MOT, 0, 0, 0, 0
ATT, 25.00, 5.86, 0.00, 0.88, 0.00, 176.46, 0.00
MOT, 0, 0, 0, 0
ATT, 21.00, 6.03, 0.00, 1.08, 0.00, 176.02, 0.00
MOT, 0, 0, 0, 0
ATT, 8.00, 6.05, 0.00, 1.16, 0.00, 175.51, 0.00
MOT, 0, 0, 0, 0
ATT, -9.00, 5.88, 0.00, 1.04, 0.00, 174.91, 0.00
MOT, 0, 0, 0, 0
ATT, -13.00, 5.64, 0.00, 0.96, 0.00, 174.29, 0.00
MOT, 0, 0, 0, 0
ATT, -14.00, 5.38, 0.00, 0.96, 0.00, 173.76, 0.00
MOT, 0, 0, 0, 0
ATT, -24.00, 5.06, 0.00, 0.95, 0.00, 173.37, 0.00
MOT, 0, 0, 0, 0
ATT, -37.00, 4.58, 0.00, 0.90, 0.00, 173.03, 0.00
MOT, 0, 0, 0, 0
ATT, -39.00, 4.08, 0.00, 0.89, 0.00, 172.78, 0.00
MOT, 0, 0, 0, 0
ATT, -44.00, 3.54, 0.00, 0.88, 0.00, 172.61, 0.00
MOT, 0, 0, 0, 0
ATT, -46.00, 3.03, 0.00, 0.88, 0.00, 172.53, 0.00
MOT, 0, 0, 0, 0
ATT, -43.00, 2.51, 0.00, 0.94, 0.00, 172.51, 0.00
MOT, 0, 0, 0, 0
ATT, -42.00, 2.01, 0.00, 1.06, 0.00, 172.57, 0.00
MOT, 0, 0, 0, 0
ATT, -41.00, 1.56, 0.00, 1.21, 0.00, 172.70, 0.00
MOT, 0, 0, 0, 0
ATT, -34.00, 1.16, 0.00, 1.38, 0.00, 172.91, 0.00
MOT, 0, 0, 0, 0
ATT, -30.00, 0.79, 0.00, 1.50, 0.00, 173.08, 0.00
MOT, 0, 0, 0, 0
ATT, -30.00, 0.43, 0.00, 1.61, 0.00, 173.21, 0.00
MOT, 0, 0, 0, 0
ATT, -34.00, 0.04, 0.00, 1.71, 0.00, 173.34, 0.00
MOT, 0, 0, 0, 0
ATT, -25.00, -0.24, 0.00, 1.76, 0.00, 173.48, 0.00
MOT, 0, 0, 0, 0
ATT, -13.00, -0.43, 0.00, 1.77, 0.00, 173.59, 0.00
MOT, 0, 0, 0, 0
ATT, 6.00, -0.40, 0.00, 1.76, 0.00, 173.64, 0.00
MOT, 0, 0, 0, 0
ATT, 12.00, -0.25, 0.00, 1.72, 0.00, 173.75, 0.00
MOT, 0, 0, 0, 0
ATT, 2.00, -0.20, 0.00, 1.70, 0.00, 173.92, 0.00
MOT, 0, 0, 0, 0
ATT, -2.00, -0.19, 0.00, 1.69, 0.00, 174.24, 0.00
MOT, 0, 0, 0, 0
ATT, -4.00, -0.24, 0.00, 1.69, 0.00, 174.59, 0.00
MOT, 0, 0, 0, 0
ATT, -3.00, -0.30, 0.00, 1.70, 0.00, 174.92, 0.00
MOT, 0, 0, 0, 0
ATT, 1.00, -0.31, 0.00, 1.71, 0.00, 175.27, 0.00
MOT, 0, 0, 0, 0
ATT, 6.00, -0.25, 0.00, 1.71, 0.00, 175.62, 0.00
MOT, 0, 0, 0, 0
ATT, 9.00, -0.15, 0.00, 1.69, 0.00, 175.89, 0.00
MOT, 0, 0, 0, 0
ATT, 10.00, -0.02, 0.00, 1.64, 0.00, 176.13, 0.00
MOT, 0, 0, 0, 0
ATT, 9.00, 0.10, 0.00, 1.60, 0.00, 176.36, 0.00
MOT, 0, 0, 0, 0
ATT, 7.00, 0.19, 0.00, 1.58, 0.00, 176.57, 0.00
MOT, 0, 0, 0, 0
ATT, 7.00, 0.26, 0.00, 1.56, 0.00, 176.74, 0.00
MOT, 0, 0, 0, 0
ATT, 6.00, 0.32, 0.00, 1.55, 0.00, 176.84, 0.00
MOT, 0, 0, 0, 0
ATT, 5.00, 0.35, 0.00, 1.54, 0.00, 176.89, 0.00
MOT, 0, 0, 0, 0
ATT, 5.00, 0.40, 0.00, 1.52, 0.00, 176.91, 0.00
MOT, 0, 0, 0, 0
ATT, 5.00, 0.44, 0.00, 1.50, 0.00, 176.93, 0.00
MOT, 0, 0, 0, 0
ATT, 7.00, 0.51, 0.00, 1.48, 0.00, 176.94, 0.00
MOT, 0, 0, 0, 0
ATT, 8.00, 0.60, 0.00, 1.43, 0.00, 176.93, 0.00
MOT, 0, 0, 0, 0
ATT, 10.00, 0.70, 0.00, 1.40, 0.00, 176.94, 0.00
MOT, 0, 0, 0, 0
ATT, 8.00, 0.80, 0.00, 1.34, 0.00, 176.95, 0.00
MOT, 0, 0, 0, 0
ATT, 7.00, 0.88, 0.00, 1.32, 0.00, 176.98, 0.00
MOT, 0, 0, 0, 0
ATT, 3.00, 0.93, 0.00, 1.30, 0.00, 177.02, 0.00
MOT, 0, 0, 0, 0
ATT, 2.00, 0.95, 0.00, 1.30, 0.00, 177.05, 0.00
MOT, 0, 0, 0, 0
ATT, 0.00, 0.94, 0.00, 1.28, 0.00, 177.07, 0.00
MOT, 0, 0, 0, 0
ATT, 4.00, 1.01, 0.00, 1.26, 0.00, 177.08, 0.00
MOT, 0, 0, 0, 0
ATT, 3.00, 1.02, 0.00, 1.27, 0.00, 177.06, 0.00
MOT, 0, 0, 0, 0
ATT, 6.00, 1.05, 0.00, 1.25, 0.00, 177.04, 0.00
MOT, 0, 0, 0, 0
ATT, 13.00, 1.17, 0.00, 1.22, 0.00, 177.00, 0.00
MOT, 0, 0, 0, 0
ATT, 10.00, 1.24, 0.00, 1.21, 0.00, 176.96, 0.00
MOT, 0, 0, 0, 0
ATT, 10.00, 1.34, 0.00, 1.16, 0.00, 176.95, 0.00
MOT, 0, 0, 0, 0
ATT, 5.00, 1.40, 0.00, 1.17, 0.00, 176.96, 0.00
MOT, 0, 0, 0, 0
ATT, 1.00, 1.41, 0.00, 1.19, 0.00, 176.98, 0.00
MOT, 0, 0, 0, 0
ATT, -2.00, 1.40, 0.00, 1.17, 0.00, 177.07, 0.00
MOT, 0, 0, 0, 0
ATT, -4.00, 1.36, 0.00, 1.16, 0.00, 177.25, 0.00
MOT, 0, 0, 0, 0
ATT, -4.00, 1.31, 0.00, 1.14, 0.00, 177.44, 0.00
MOT, 0, 0, 0, 0
ATT, -4.00, 1.25, 0.00, 1.16, 0.00, 177.56, 0.00
MOT, 0, 0, 0, 0
ATT, -1.00, 1.22, 0.00, 1.17, 0.00, 177.61, 0.00
MOT, 0, 0, 0, 0
ATT, 0.00, 1.21, 0.00, 1.20, 0.00, 177.67, 0.00
MOT, 0, 0, 0, 0
ATT, -3.00, 1.15, 0.00, 1.17, 0.00, 177.73, 0.00
MOT, 0, 0, 0, 0
ATT, -3.00, 1.10, 0.00, 1.17, 0.00, 177.79, 0.00
MOT, 0, 0, 0, 0
ATT, -9.00, 0.99, 0.00, 1.20, 0.00, 177.82, 0.00
MOT, 0, 0, 0, 0
ATT, -15.00, 0.82, 0.00, 1.24, 0.00, 177.89, 0.00
MOT, 0, 0, 0, 0
ATT, -22.00, 0.57, 0.00, 1.31, 0.00, 178.03, 0.00
MOT, 0, 0, 0, 0
ATT, -18.00, 0.37, 0.00, 1.35, 0.00, 178.17, 0.00
MOT, 0, 0, 0, 0
ATT, -10.00, 0.23, 0.00, 1.39, 0.00, 178.26, 0.00
MOT, 0, 0, 0, 0
ATT, -1.00, 0.16, 0.00, 1.41, 0.00, 178.26, 0.00
MOT, 0, 0, 0, 0
ATT, 0.00, 0.13, 0.00, 1.40, 0.00, 178.26, 0.00
MOT, 0, 0, 0, 0
ATT, -2.00, 0.10, 0.00, 1.41, 0.00, 178.26, 0.00
MOT, 0, 0, 0, 0
ATT, -2.00, 0.08, 0.00, 1.41, 0.00, 178.27, 0.00
MOT, 0, 0, 0, 0
ATT, -1.00, 0.06, 0.00, 1.41, 0.00, 178.27, 0.00
MOT, 0, 0, 0, 0
ATT, 0.00, 0.05, 0.00, 1.40, 0.00, 178.26, 0.00
MOT, 0, 0, 0, 0
ATT, 0.00, 0.04, 0.00, 1.40, 0.00, 178.26, 0.00
MOT, 0, 0, 0, 0
ATT, 0.00, 0.02, 0.00, 1.41, 0.00, 178.26, 0.00
MOT, 0, 0, 0, 0
ATT, 0.00, 0.01, 0.00, 1.41, 0.00, 178.26, 0.00
MOT, 0, 0, 0, 0
ATT, -1.00, 0.00, 0.00, 1.40, 0.00, 178.27, 0.00
MOT, 0, 0, 0, 0
ATT, 0.00, -0.01, 0.00, 1.38, 0.00, 178.33, 0.00
MOT, 0, 0, 0, 0
ATT, 0.00, -0.02, 0.00, 1.37, 0.00, 178.41, 0.00
MOT, 0, 0, 0, 0
ATT, 0.00, -0.02, 0.00, 1.37, 0.00, 178.43, 0.00
MOT, 0, 0, 0, 0
ATT, -1.00, -0.03, 0.00, 1.40, 0.00, 178.42, 0.00
MOT, 0, 0, 0, 0
ATT, -1.00, -0.03, 0.00, 1.42, 0.00, 178.43, 0.00
MOT, 0, 0, 0, 0
ATT, 0.00, -0.04, 0.00, 1.42, 0.00, 178.43, 0.00
MOT, 0, 0, 0, 0
ATT, 0.00, -0.05, 0.00, 1.42, 0.00, 178.43, 0.00
MOT, 0, 0, 0, 0
ATT, 0.00, -0.06, 0.00, 1.41, 0.00, 178.45, 0.00
MOT, 0, 0, 0, 0
ATT, 0.00, -0.07, 0.00, 1.39, 0.00, 178.51, 0.00
MOT, 0, 0, 0, 0
ATT, 0.00, -0.09, 0.00, 1.36, 0.00, 178.58, 0.00
MOT, 0, 0, 0, 0
ATT, -1.00, -0.12, 0.00, 1.36, 0.00, 178.69, 0.00
MOT, 0, 0, 0, 0
ATT, -2.00, -0.16, 0.00, 1.35, 0.00, 178.85, 0.00
MOT, 0, 0, 0, 0
ATT, -3.00, -0.19, 0.00, 1.39, 0.00, 178.99, 0.00
MOT, 0, 0, 0, 0
ATT, -3.00, -0.23, 0.00, 1.45, 0.00, 179.06, 0.00
MOT, 0, 0, 0, 0
ATT, -3.00, -0.28, 0.00, 1.52, 0.00, 179.01, 0.00
MOT, 0, 0, 0, 0
ATT, -2.00, -0.32, 0.00, 1.56, 0.00, 178.89, 0.00
MOT, 0, 0, 0, 0
ATT, -1.00, -0.34, 0.00, 1.57, 0.00, 178.75, 0.00
MOT, 0, 0, 0, 0
ATT, 0.00, -0.35, 0.00, 1.56, 0.00, 178.63, 0.00
MOT, 0, 0, 0, 0
ATT, 0.00, -0.35, 0.00, 1.55, 0.00, 178.55, 0.00
MOT, 0, 0, 0, 0
ATT, 0.00, -0.35, 0.00, 1.54, 0.00, 178.47, 0.00
MOT, 0, 0, 0, 0
ATT, 0.00, -0.36, 0.00, 1.54, 0.00, 178.40, 0.00
MOT, 0, 0, 0, 0
ATT, 0.00, -0.35, 0.00, 1.53, 0.00, 178.35, 0.00
MOT, 0, 0, 0, 0
ATT, 0.00, -0.34, 0.00, 1.52, 0.00, 178.33, 0.00
MOT, 0, 0, 0, 0
ATT, 0.00, -0.34, 0.00, 1.51, 0.00, 178.32, 0.00
MOT, 0, 0, 0, 0
ATT, 0.00, -0.33, 0.00, 1.50, 0.00, 178.31, 0.00
MOT, 0, 0, 0, 0
ATT, 0.00, -0.33, 0.00, 1.49, 0.00, 178.30, 0.00
MOT, 0, 0, 0, 0
ATT, 0.00, -0.32, 0.00, 1.48, 0.00, 178.30, 0.00
MOT, 0, 0, 0, 0
ATT, 0.00, -0.32, 0.00, 1.47, 0.00, 178.29, 0.00
MOT, 0, 0, 0, 0
ATT, 0.00, -0.31, 0.00, 1.46, 0.00, 178.29, 0.00
MOT, 0, 0, 0, 0
ATT, 0.00, -0.31, 0.00, 1.45, 0.00, 178.30, 0.00
MOT, 0, 0, 0, 0
ATT, -1.00, -0.33, 0.00, 1.46, 0.00, 178.34, 0.00
MOT, 0, 0, 0, 0
ATT, 0.00, -0.34, 0.00, 1.47, 0.00, 178.35, 0.00
MOT, 0, 0, 0, 0
ATT, 0.00, -0.37, 0.00, 1.50, 0.00, 178.30, 0.00
MOT, 0, 0, 0, 0
ATT, -1.00, -0.39, 0.00, 1.50, 0.00, 178.23, 0.00
MOT, 0, 0, 0, 0
ATT, -1.00, -0.41, 0.00, 1.51, 0.00, 178.16, 0.00
MOT, 0, 0, 0, 0
ATT, -1.00, -0.43, 0.00, 1.51, 0.00, 178.07, 0.00
MOT, 0, 0, 0, 0
ATT, 0.00, -0.44, 0.00, 1.51, 0.00, 178.00, 0.00
MOT, 0, 0, 0, 0
ATT, 0.00, -0.45, 0.00, 1.51, 0.00, 177.94, 0.00
MOT, 0, 0, 0, 0
ATT, 0.00, -0.45, 0.00, 1.51, 0.00, 177.87, 0.00
MOT, 0, 0, 0, 0
ATT, 0.00, -0.46, 0.00, 1.52, 0.00, 177.79, 0.00
MOT, 0, 0, 0, 0
ATT, 0.00, -0.46, 0.00, 1.52, 0.00, 177.71, 0.00
MOT, 0, 0, 0, 0
ATT, 0.00, -0.47, 0.00, 1.51, 0.00, 177.63, 0.00
MOT, 0, 0, 0, 0
ATT, 0.00, -0.47, 0.00, 1.50, 0.00, 177.58, 0.00
MOT, 0, 0, 0, 0
ATT, 0.00, -0.47, 0.00, 1.47, 0.00, 177.56, 0.00
MOT, 0, 0, 0, 0
ATT, 0.00, -0.47, 0.00, 1.46, 0.00, 177.55, 0.00
MOT, 0, 0, 0, 0
ATT, 0.00, -0.47, 0.00, 1.46, 0.00, 177.55, 0.00
MOT, 0, 0, 0, 0
ATT, 0.00, -0.47, 0.00, 1.45, 0.00, 177.55, 0.00
MOT, 0, 0, 0, 0
ATT, 0.00, -0.47, 0.00, 1.45, 0.00, 177.54, 0.00
MOT, 0, 0, 0, 0
ATT, 0.00, -0.47, 0.00, 1.45, 0.00, 177.55, 0.00
MOT, 0, 0, 0, 0
ATT, 0.00, -0.48, 0.00, 1.45, 0.00, 177.55, 0.00
MOT, 0, 0, 0, 0
ATT, 0.00, -0.48, 0.00, 1.45, 0.00, 177.55, 0.00
MOT, 0, 0, 0, 0
ATT, -1.00, -0.50, 0.00, 1.46, 0.00, 177.55, 0.00
MOT, 0, 0, 0, 0
ATT, -1.00, -0.52, 0.00, 1.47, 0.00, 177.55, 0.00
MOT, 0, 0, 0, 0
ATT, -2.00, -0.55, 0.00, 1.49, 0.00, 177.51, 0.00
MOT, 0, 0, 0, 0
ATT, 4.00, -0.51, 0.00, 1.47, 0.00, 177.33, 0.00
MOT, 0, 0, 0, 0
ATT, 6.00, -0.43, 0.00, 1.46, 0.00, 177.05, 0.00
MOT, 0, 0, 0, 0
ATT, 0.00, -0.41, 0.00, 1.43, 0.00, 176.69, 0.00
MOT, 0, 0, 0, 0
ATT, -1.00, -0.43, 0.00, 1.43, 0.00, 176.22, 0.00
MOT, 0, 0, 0, 0
ATT, 0.00, -0.42, 0.00, 1.44, 0.00, 175.70, 0.00
MOT, 0, 0, 0, 0
ATT, 1.00, -0.41, 0.00, 1.46, 0.00, 175.03, 0.00
MOT, 0, 0, 0, 0
ATT, 0.00, -0.39, 0.00, 1.46, 0.00, 174.53, 0.00
MOT, 0, 0, 0, 0
ATT, -1.00, -0.41, 0.00, 1.47, 0.00, 174.29, 0.00
MOT, 0, 0, 0, 0
ATT, -1.00, -0.51, 0.00, 1.45, 0.00, 174.25, 0.00
MOT, 0, 0, 0, 0
ATT, -3.00, -0.59, 0.00, 1.43, 0.00, 174.26, 0.00
MOT, 0, 0, 0, 0
ATT, -2.00, -0.63, 0.00, 1.43, 0.00, 174.29, 0.00
MOT, 0, 0, 0, 0
ATT, -3.00, -0.67, 0.00, 1.43, 0.00, 174.30, 0.00
MOT, 0, 0, 0, 0
ATT, 0.00, -0.66, 0.00, 1.43, 0.00, 174.30, 0.00
MOT, 0, 0, 0, 0
ATT, 0.00, -0.66, 0.00, 1.41, 0.00, 174.28, 0.00
MOT, 0, 0, 0, 0
ATT, 0.00, -0.67, 0.00, 1.42, 0.00, 174.24, 0.00
MOT, 0, 0, 0, 0
ATT, 0.00, -0.67,
