FMT, 128, 89, FMT, BBnNZ, Type,Length,Name,Format
FMT, 129, 23, PARM, Nf, Name,Value
FMT, 130, 35, GPS, BIBcLLeeEe, Status,Time,NSats,HDop,Lat,Lng,RelAlt,Alt,Spd,GCrs
FMT, 131, 27, IMU, ffffff, GyrX,GyrY,GyrZ,AccX,AccY,AccZ
FMT, 132, 67, MSG, Z, Message
FMT, 9, 19, CURR, hIhhhf, Thr,ThrInt,Volt,Curr,Vcc,CurrTot
FMT, 11, 11, MOT, hhhh, Mot1,Mot2,Mot3,Mot4
FMT, 12, 28, OF, hhBccffee, Dx,Dy,SQual,X,Y,Lat,Lng,Roll,Pitch
FMT, 5, 49, NTUN, Ecffffffffee, WPDst,WPBrg,PErX,PErY,DVelX,DVelY,VelX,VelY,DAcX,DAcY,DRol,DPit
FMT, 4, 25, CTUN, hcefchhhh, ThrIn,SonAlt,BarAlt,WPAlt,DesSonAlt,AngBst,CRate,ThrOut,DCRate
FMT, 15, 21, MAG, hhhhhhhhh, MagX,MagY,MagZ,OfsX,OfsY,OfsZ,MOfsX,MOfsY,MOfsZ
FMT, 6, 17, PM, BBBHHIhB, RenCnt,RenBlw,FixCnt,NLon,NLoop,MaxT,PMT,I2CErr
FMT, 8, 20, CMD, BBBBBeLL, CTot,CNum,CId,COpt,Prm1,Alt,Lat,Lng
FMT, 1, 17, ATT, cccccCC, RollIn,Roll,PitchIn,Pitch,YawIn,Yaw,NavYaw
FMT, 17, 37, INAV, cccfffiiff, BAlt,IAlt,IClb,ACorrX,ACorrY,ACorrZ,GLat,GLng,ILat,ILng
FMT, 3, 6, MODE, Mh, Mode,ThrCrs
FMT, 10, 3, STRT, , 
FMT, 13, 4, EV, B, Id
FMT, 20, 6, D16, Bh, Id,Value
FMT, 21, 6, DU16, BH, Id,Value
FMT, 22, 8, D32, Bi, Id,Value
FMT, 23, 8, DU32, BI, Id,Value
FMT, 24, 8, DFLT, Bf, Id,Value
FMT, 14, 28, PID, Biiiiif, Id,Error,P,I,D,Out,Gain
FMT, 16, 15, DMP, ccccCC, DCMRoll,DMPRoll,DCMPtch,DMPPtch,DCMYaw,DMPYaw
FMT, 18, 25, CAM, ILLeccC, GPSTime,Lat,Lng,Alt,Roll,Pitch,Yaw
FMT, 19, 5, ERR, BB, Subsys,ECode
MOT, 893, 65, 300, 0
ATT, 0.00, 4.53, 0.00, -0.59, 0.00, 72.84, 0.00
DFLT, 1, -0.468146
DFLT, 3, 0.000000
DFLT, 4, 0.000000
DFLT, 5, 0.000000
DFLT, 6, 0.000000
D16, 2, 1
MOT, 961, 81, 300, 0
ATT, 0.00, 4.54, 0.00, -0.54, 0.00, 72.28, 0.00
DFLT, 1, -0.471520
DFLT, 3, 0.000000
DFLT, 4, 0.000000
DFLT, 5, 0.000000
DFLT, 6, 0.000000
D16, 2, 1
MOT, 848, 106, 300, 0
ATT, 0.00, 4.63, 0.00, -0.52, 0.00, 71.74, 0.00
DFLT, 1, -0.477449
DFLT, 3, 0.000000
DFLT, 4, 0.000000
DFLT, 5, 0.000000
DFLT, 6, 0.000000
D16, 2, 1
MOT, 697, 130, 300, 0
ATT, 0.00, 4.81, 0.00, -0.52, 0.00, 71.19, 0.00
DFLT, 1, -0.480669
DFLT, 3, 0.000000
DFLT, 4, 0.000000
DFLT, 5, 0.000000
DFLT, 6, 0.000000
D16, 2, 1
MOT, 516, 143, 299, 0
ATT, 0.00, 5.07, 0.00, -0.52, 0.00, 70.64, 0.00
DFLT, 1, -0.485320
DFLT, 3, 0.000000
DFLT, 4, 0.000000
DFLT, 5, 0.000000
DFLT, 6, 0.000000
D16, 2, 1
MOT, 311, 204, 300, 0
ATT, 0.00, 5.42, 0.00, -0.55, 0.00, 70.05, 0.00
DFLT, 1, -0.487195
DFLT, 3, 0.000000
DFLT, 4, 0.000000
DFLT, 5, 0.000000
DFLT, 6, 0.000000
D16, 2, 1
MOT, 137, 228, 300, 0
ATT, 0.00, 5.82, 0.00, -0.57, 0.00, 69.49, 0.00
DFLT, 1, -0.487825
DFLT, 3, 0.000000
DFLT, 4, 0.000000
DFLT, 5, 0.000000
DFLT, 6, 0.000000
D16, 2, 1
MOT, -64, 288, 299, 0
ATT, 0.00, 6.32, 0.00, -0.61, 0.00, 68.93, 0.00
DFLT, 1, -0.483531
DFLT, 3, 0.000000
DFLT, 4, 0.000000
DFLT, 5, 0.000000
DFLT, 6, 0.000000
D16, 2, 1
MOT, -316, 325, 300, 0
ATT, 0.00, 6.90, 0.00, -0.67, 0.00, 68.37, 0.00
DFLT, 1, -0.483173
DFLT, 3, 0.000000
DFLT, 4, 0.000000
DFLT, 5, 0.000000
DFLT, 6, 0.000000
D16, 2, 1
MOT, -481, 343, 300, 0
ATT, 0.00, 7.56, 0.00, -0.74, 0.00, 67.77, 0.00
DFLT, 1, -0.490943
DFLT, 3, 0.000000
DFLT, 4, 0.000000
DFLT, 5, 0.000000
DFLT, 6, 0.000000
D16, 2, 1
MOT, -594, 401, 300, 0
ATT, 0.00, 8.18, 0.00, -0.82, 0.00, 67.19, 0.00
DFLT, 1, -0.494623
DFLT, 3, 0.000000
DFLT, 4, 0.000000
DFLT, 5, 0.000000
DFLT, 6, 0.000000
D16, 2, 1
MOT, -700, 399, 300, 0
ATT, 0.00, 8.81, 0.00, -0.89, 0.00, 66.62, 0.00
DFLT, 1, -0.486394
DFLT, 3, 0.000000
DFLT, 4, 0.000000
DFLT, 5, 0.000000
DFLT, 6, 0.000000
D16, 2, 1
MOT, -767, 419, 300, 0
ATT, 0.00, 9.44, 0.00, -0.97, 0.00, 66.06, 0.00
DFLT, 1, -0.480669
DFLT, 3, 0.000000
DFLT, 4, 0.000000
DFLT, 5, 0.000000
DFLT, 6, 0.000000
D16, 2, 1
MOT, -771, 426, 299, 0
ATT, 0.00, 10.05, 0.00, -1.06, 0.00, 65.47, 0.00
DFLT, 1, -0.475608
DFLT, 3, 0.000000
DFLT, 4, 0.000000
DFLT, 5, 0.000000
DFLT, 6, 0.000000
D16, 2, 1
MOT, -666, 450, 300, 0
ATT, 0.00, 10.53, 0.00, -1.12, 0.00, 64.92, 0.00
DFLT, 1, -0.469220
DFLT, 3, 0.000000
DFLT, 4, 0.000000
DFLT, 5, 0.000000
DFLT, 6, 0.000000
D16, 2, 1
MOT, -546, 457, 300, 0
ATT, 0.00, 10.92, 0.00, -1.16, 0.00, 64.38, 0.00
DFLT, 1, -0.453834
DFLT, 3, 0.000000
DFLT, 4, 0.000000
DFLT, 5, 0.000000
DFLT, 6, 0.000000
D16, 2, 1
MOT, -423, 459, 300, 0
ATT, 0.00, 11.23, 0.00, -1.22, 0.00, 63.85, 0.00
DFLT, 1, -0.441312
DFLT, 3, 0.000000
DFLT, 4, 0.000000
DFLT, 5, 0.000000
DFLT, 6, 0.000000
D16, 2, 1
MOT, -233, 412, 300, 0
ATT, 0.00, 11.42, 0.00, -1.27, 0.00, 63.31, 0.00
DFLT, 1, -0.440511
DFLT, 3, 0.000000
DFLT, 4, 0.000000
DFLT, 5, 0.000000
DFLT, 6, 0.000000
D16, 2, 1
MOT, -3, 415, 300, 0
ATT, 0.00, 11.48, 0.00, -1.31, 0.00, 62.80, 0.00
DFLT, 1, -0.437376
DFLT, 3, 0.000000
DFLT, 4, 0.000000
DFLT, 5, 0.000000
DFLT, 6, 0.000000
D16, 2, 1
MOT, 162, 394, 300, 0
ATT, 0.00, 11.42, 0.00, -1.32, 0.00, 62.30, 0.00
DFLT, 1, -0.423422
DFLT, 3, 0.000000
DFLT, 4, 0.000000
DFLT, 5, 0.000000
DFLT, 6, 0.000000
D16, 2, 1
MOT, 364, 355, 300, 0
ATT, 0.00, 11.26, 0.00, -1.33, 0.00, 61.82, 0.00
DFLT, 1, -0.418771
DFLT, 3, 0.000000
DFLT, 4, 0.000000
DFLT, 5, 0.000000
DFLT, 6, 0.000000
D16, 2, 1
MOT, 577, 325, 300, 0
ATT, 0.00, 10.98, 0.00, -1.33, 0.00, 61.31, 0.00
DFLT, 1, -0.413932
DFLT, 3, 0.000000
DFLT, 4, 0.000000
DFLT, 5, 0.000000
DFLT, 6, 0.000000
D16, 2, 1
MOT, 723, 323, 300, 0
ATT, 0.00, 10.66, 0.00, -1.34, 0.00, 60.86, 0.00
DFLT, 1, -0.396946
DFLT, 3, 0.000000
DFLT, 4, 0.000000
DFLT, 5, 0.000000
DFLT, 6, 0.000000
D16, 2, 1
MOT, 869, 324, 300, 0
ATT, 0.00, 10.30, 0.00, -1.34, 0.00, 60.40, 0.00
DFLT, 1, -0.394083
DFLT, 3, 0.000000
DFLT, 4, 0.000000
DFLT, 5, 0.000000
DFLT, 6, 0.000000
D16, 2, 1
MOT, 959, 308, 300, 0
ATT, 0.00, 9.91, 0.00, -1.32, 0.00, 59.95, 0.00
DFLT, 1, -0.391579
DFLT, 3, 0.000000
DFLT, 4, 0.000000
DFLT, 5, 0.000000
DFLT, 6, 0.000000
D16, 2, 1
MOT, 1018, 282, 300, 0
ATT, 0.00, 9.49, 0.00, -1.30, 0.00, 59.49, 0.00
DFLT, 1, -0.385649
DFLT, 3, 0.000000
DFLT, 4, 0.000000
DFLT, 5, 0.000000
DFLT, 6, 0.000000
D16, 2, 1
MOT, 1108, 270, 300, 0
ATT, 0.00, 9.09, 0.00, -1.28, 0.00, 59.05, 0.00
DFLT, 1, -0.387285
DFLT, 3, 0.000000
DFLT, 4, 0.000000
DFLT, 5, 0.000000
DFLT, 6, 0.000000
D16, 2, 1
MOT, 1074, 249, 299, 0
ATT, 0.00, 8.75, 0.00, -1.27, 0.00, 58.60, 0.00
DFLT, 1, -0.389790
DFLT, 3, 0.000000
DFLT, 4, 0.000000
DFLT, 5, 0.000000
DFLT, 6, 0.000000
D16, 2, 1
MOT, 1015, 240, 300, 0
ATT, 0.00, 8.44, 0.00, -1.24, 0.00, 58.16, 0.00
DFLT, 1, -0.390147
DFLT, 3, 0.000000
DFLT, 4, 0.000000
DFLT, 5, 0.000000
DFLT, 6, 0.000000
D16, 2, 1
MOT, 995, 229, 299, 0
ATT, 0.00, 8.15, 0.00, -1.20, 0.00, 57.69, 0.00
DFLT, 1, -0.387013
DFLT, 3, 0.000000
DFLT, 4, 0.000000
DFLT, 5, 0.000000
DFLT, 6, 0.000000
D16, 2, 1
MOT, 891, 210, 300, 0
ATT, 0.00, 7.95, 0.00, -1.20, 0.00, 57.26, 0.00
DFLT, 1, -0.383349
DFLT, 3, 0.000000
DFLT, 4, 0.000000
DFLT, 5, 0.000000
DFLT, 6, 0.000000
D16, 2, 1
MOT, 750, 238, 300, 0
ATT, 0.00, 7.85, 0.00, -1.19, 0.00, 56.83, 0.00
DFLT, 1, -0.379771
DFLT, 3, 0.000000
DFLT, 4, 0.000000
DFLT, 5, 0.000000
DFLT, 6, 0.000000
D16, 2, 1
MOT, 612, 232, 300, 0
ATT, 0.00, 7.83, 0.00, -1.17, 0.00, 56.39, 0.00
DFLT, 1, -0.379413
DFLT, 3, 0.000000
DFLT, 4, 0.000000
DFLT, 5, 0.000000
DFLT, 6, 0.000000
D16, 2, 1
MOT, 468, 248, 300, 0
ATT, 0.00, 7.88, 0.00, -1.15, 0.00, 55.94, 0.00
DFLT, 1, -0.381220
DFLT, 3, 0.000000
DFLT, 4, 0.000000
DFLT, 5, 0.000000
DFLT, 6, 0.000000
D16, 2, 1
MOT, 347, 272, 300, 0
ATT, 0.00, 7.99, 0.00, -1.13, 0.00, 55.50, 0.00
DFLT, 1, -0.382991
DFLT, 3, 0.000000
DFLT, 4, 0.000000
DFLT, 5, 0.000000
DFLT, 6, 0.000000
D16, 2, 1
MOT, 210, 266, 300, 0
ATT, 0.00, 8.19, 0.00, -1.12, 0.00, 55.06, 0.00
DFLT, 1, -0.383708
DFLT, 3, 0.000000
DFLT, 4, 0.000000
DFLT, 5, 0.000000
DFLT, 6, 0.000000
D16, 2, 1
MOT, 3, 270, 300, 0
ATT, 0.00, 8.45, 0.00, -1.12, 0.00, 54.61, 0.00
DFLT, 1, -0.387285
DFLT, 3, 0.000000
DFLT, 4, 0.000000
DFLT, 5, 0.000000
DFLT, 6, 0.000000
D16, 2, 1
MOT, -86, 245, 299, 0
ATT, 0.00, 8.75, 0.00, -1.11, 0.00, 54.15, 0.00
DFLT, 1, -0.381560
DFLT, 3, 0.000000
DFLT, 4, 0.000000
DFLT, 5, 0.000000
DFLT, 6, 0.000000
D16, 2, 1
MOT, -172, 226, 300, 0
ATT, 0.00, 9.06, 0.00, -1.11, 0.00, 53.72, 0.00
DFLT, 1, -0.379413
DFLT, 3, 0.000000
DFLT, 4, 0.000000
DFLT, 5, 0.000000
DFLT, 6, 0.000000
D16, 2, 1
MOT, -277, 206, 299, 0
ATT, 0.00, 9.42, 0.00, -1.09, 0.00, 53.29, 0.00
DFLT, 1, -0.373689
DFLT, 3, 0.000000
DFLT, 4, 0.000000
DFLT, 5, 0.000000
DFLT, 6, 0.000000
D16, 2, 1
MOT, -303, 172, 300, 0
ATT, 0.00, 9.76, 0.00, -1.05, 0.00, 52.88, 0.00
DFLT, 1, -0.370469
DFLT, 3, 0.000000
DFLT, 4, 0.000000
DFLT, 5, 0.000000
DFLT, 6, 0.000000
D16, 2, 1
MOT, -260, 164, 299, 0
ATT, 0.00, 10.05, 0.00, -0.99, 0.00, 52.44, 0.00
DFLT, 1, -0.366908
DFLT, 3, 0.000000
DFLT, 4, 0.000000
DFLT, 5, 0.000000
DFLT, 6, 0.000000
D16, 2, 1
MOT, -198, 186, 300, 0
ATT, 0.00, 10.30, 0.00, -0.93, 0.00, 52.04, 0.00
DFLT, 1, -0.358304
DFLT, 3, 0.000000
DFLT, 4, 0.000000
DFLT, 5, 0.000000
DFLT, 6, 0.000000
D16, 2, 1
MOT, -134, 149, 300, 0
ATT, 0.00, 10.51, 0.00, -0.86, 0.00, 51.64, 0.00
DFLT, 1, -0.350790
DFLT, 3, 0.000000
DFLT, 4, 0.000000
DFLT, 5, 0.000000
DFLT, 6, 0.000000
D16, 2, 1
MOT, -7, 148, 300, 0
ATT, 0.00, 10.62, 0.00, -0.81, 0.00, 51.25, 0.00
DFLT, 1, -0.346855
DFLT, 3, 0.000000
DFLT, 4, 0.000000
DFLT, 5, 0.000000
DFLT, 6, 0.000000
D16, 2, 1
MOT, 155, 131, 300, 0
ATT, 0.00, 10.64, 0.00, -0.77, 0.00, 50.85, 0.00
DFLT, 1, -0.337944
DFLT, 3, 0.000000
DFLT, 4, 0.000000
DFLT, 5, 0.000000
DFLT, 6, 0.000000
D16, 2, 1
MOT, 310, 106, 300, 0
ATT, 0.00, 10.58, 0.00, -0.73, 0.00, 50.48, 0.00
DFLT, 1, -0.327533
DFLT, 3, 0.000000
DFLT, 4, 0.000000
DFLT, 5, 0.000000
DFLT, 6, 0.000000
D16, 2, 1
MOT, 449, 91, 300, 0
ATT, 0.00, 10.45, 0.00, -0.69, 0.00, 50.13, 0.00
DFLT, 1, -0.320736
DFLT, 3, 0.000000
DFLT, 4, 0.000000
DFLT, 5, 0.000000
DFLT, 6, 0.000000
D16, 2, 1
MOT, 623, 89, 295, 0
ATT, 0.00, 10.21, 0.00, -0.65, 0.00, 49.78, 0.00
DFLT, 1, -0.310360
DFLT, 3, 0.000000
DFLT, 4, 0.000000
DFLT, 5, 0.000000
DFLT, 6, 0.000000
D16, 2, 1
MOT, 802, 48, 285, 0
ATT, 0.00, 9.89, 0.00, -0.58, 0.00, 49.43, 0.00
DFLT, 1, -0.298757
DFLT, 3, 0.000000
DFLT, 4, 0.000000
DFLT, 5, 0.000000
DFLT, 6, 0.000000
D16, 2, 1
MOT, 942, 91, 282, 0
ATT, 0.00, 9.56, 0.00, -0.52, 0.00, 49.10, 0.00
DFLT, 1, -0.296048
DFLT, 3, 0.000000
DFLT, 4, 0.000000
DFLT, 5, 0.000000
DFLT, 6, 0.000000
D16, 2, 1
MOT, 1053, 74, 282, 0
ATT, 0.00, 9.20, 0.00, -0.46, 0.00, 48.77, 0.00
DFLT, 1, -0.296048
DFLT, 3, 0.000000
DFLT, 4, 0.000000
DFLT, 5, 0.000000
DFLT, 6, 0.000000
D16, 2, 1
MOT, 1129, 75, 281, 0
ATT, 0.00, 8.82, 0.00, -0.42, 0.00, 48.43, 0.00
DFLT, 1, -0.294259
DFLT, 3, 0.000000
DFLT, 4, 0.000000
DFLT, 5, 0.000000
DFLT, 6, 0.000000
D16, 2, 1
MOT, 1216, 92, 271, 0
ATT, 0.00, 8.38, 0.00, -0.40, 0.00, 48.10, 0.00
DFLT, 1, -0.283764
DFLT, 3, 0.000000
DFLT, 4, 0.000000
DFLT, 5, 0.000000
DFLT, 6, 0.000000
D16, 2, 1
MOT, 1242, 114, 266, 0
ATT, 0.00, 8.01, 0.00, -0.43, 0.00, 47.78, 0.00
DFLT, 1, -0.279231
DFLT, 3, 0.000000
DFLT, 4, 0.000000
DFLT, 5, 0.000000
DFLT, 6, 0.000000
D16, 2, 1
MOT, 1183, 146, 267, 0
ATT, 0.00, 7.69, 0.00, -0.46, 0.00, 47.46, 0.00
DFLT, 1, -0.279590
DFLT, 3, 0.000000
DFLT, 4, 0.000000
DFLT, 5, 0.000000
DFLT, 6, 0.000000
D16, 2, 1
MOT, 1133, 195, 260, 0
ATT, 0.00, 7.40, 0.00, -0.50, 0.00, 47.14, 0.00
DFLT, 1, -0.272792
DFLT, 3, 0.000000
DFLT, 4, 0.000000
DFLT, 5, 0.000000
DFLT, 6, 0.000000
D16, 2, 1
MOT, 1068, 221, 255, 0
ATT, 0.00, 7.16, 0.00, -0.55, 0.00, 46.81, 0.00
DFLT, 1, -0.268089
DFLT, 3, 0.000000
DFLT, 4, 0.000000
DFLT, 5, 0.000000
DFLT, 6, 0.000000
D16, 2, 1
MOT, 919, 311, 260, 0
ATT, 0.00, 7.03, 0.00, -0.62, 0.00, 46.49, 0.00
DFLT, 1, -0.272792
DFLT, 3, 0.000000
DFLT, 4, 0.000000
DFLT, 5, 0.000000
DFLT, 6, 0.000000
D16, 2, 1
MOT, 804, 353, 257, 0
ATT, 0.00, 6.98, 0.00, -0.71, 0.00, 46.16, 0.00
DFLT, 1, -0.269929
DFLT, 3, 0.000000
DFLT, 4, 0.000000
DFLT, 5, 0.000000
DFLT, 6, 0.000000
D16, 2, 1
MOT, 649, 402, 263, 0
ATT, 0.00, 7.00, 0.00, -0.82, 0.00, 45.83, 0.00
DFLT, 1, -0.276727
DFLT, 3, 0.000000
DFLT, 4, 0.000000
DFLT, 5, 0.000000
DFLT, 6, 0.000000
D16, 2, 1
MOT, 456, 438, 265, 0
ATT, 0.00, 7.13, 0.00, -0.97, 0.00, 45.48, 0.00
DFLT, 1, -0.279334
DFLT, 3, 0.000000
DFLT, 4, 0.000000
DFLT, 5, 0.000000
DFLT, 6, 0.000000
D16, 2, 1
MOT, 337, 468, 263, 0
ATT, 0.00, 7.31, 0.00, -1.11, 0.00, 45.14, 0.00
DFLT, 1, -0.277442
DFLT, 3, 0.000000
DFLT, 4, 0.000000
DFLT, 5, 0.000000
DFLT, 6, 0.000000
D16, 2, 1
MOT, 166, 480, 260, 0
ATT, 0.00, 7.56, 0.00, -1.26, 0.00, 44.81, 0.00
DFLT, 1, -0.275654
DFLT, 3, 0.000000
DFLT, 4, 0.000000
DFLT, 5, 0.000000
DFLT, 6, 0.000000
D16, 2, 1
MOT, 4, 479, 256, 0
ATT, 0.00, 7.89, 0.00, -1.39, 0.00, 44.48, 0.00
DFLT, 1, -0.272076
DFLT, 3, 0.000000
DFLT, 4, 0.000000
DFLT, 5, 0.000000
DFLT, 6, 0.000000
D16, 2, 1
MOT, -117, 461, 254, 0
ATT, 0.00, 8.25, 0.00, -1.49, 0.00, 44.14, 0.00
DFLT, 1, -0.269793
DFLT, 3, 0.000000
DFLT, 4, 0.000000
DFLT, 5, 0.000000
DFLT, 6, 0.000000
D16, 2, 1
MOT, -265, 464, 260, 0
ATT, 0.00, 8.64, 0.00, -1.58, 0.00, 43.81, 0.00
DFLT, 1, -0.276370
DFLT, 3, 0.000000
DFLT, 4, 0.000000
DFLT, 5, 0.000000
DFLT, 6, 0.000000
D16, 2, 1
MOT, -320, 463, 257, 0
ATT, 0.00, 9.06, 0.00, -1.65, 0.00, 43.48, 0.00
DFLT, 1, -0.273507
DFLT, 3, 0.000000
DFLT, 4, 0.000000
DFLT, 5, 0.000000
DFLT, 6, 0.000000
D16, 2, 1
MOT, -353, 436, 250, 0
ATT, 0.00, 9.47, 0.00, -1.70, 0.00, 43.16, 0.00
DFLT, 1, -0.266709
DFLT, 3, 0.000000
DFLT, 4, 0.000000
DFLT, 5, 0.000000
DFLT, 6, 0.000000
D16, 2, 1
MOT, -407, 422, 256, 0
ATT, 0.00, 9.90, 0.00, -1.75, 0.00, 42.82, 0.00
DFLT, 1, -0.273541
DFLT, 3, 0.000000
DFLT, 4, 0.000000
DFLT, 5, 0.000000
DFLT, 6, 0.000000
D16, 2, 1
MOT, -328, 420, 249, 0
ATT, 0.00, 10.26, 0.00, -1.79, 0.00, 42.51, 0.00
DFLT, 1, -0.265993
DFLT, 3, 0.000000
DFLT, 4, 0.000000
DFLT, 5, 0.000000
DFLT, 6, 0.000000
D16, 2, 1
MOT, -243, 390, 242, 0
ATT, 0.00, 10.52, 0.00, -1.81, 0.00, 42.20, 0.00
DFLT, 1, -0.259553
DFLT, 3, 0.000000
DFLT, 4, 0.000000
DFLT, 5, 0.000000
DFLT, 6, 0.000000
D16, 2, 1
MOT, -169, 360, 236, 0
ATT, 0.00, 10.72, 0.00, -1.83, 0.00, 41.91, 0.00
DFLT, 1, -0.253471
DFLT, 3, 0.000000
DFLT, 4, 0.000000
DFLT, 5, 0.000000
DFLT, 6, 0.000000
D16, 2, 1
MOT, -74, 332, 226, 0
ATT, 0.00, 10.86, 0.00, -1.84, 0.00, 41.61, 0.00
DFLT, 1, -0.243214
DFLT, 3, 0.000000
DFLT, 4, 0.000000
DFLT, 5, 0.000000
DFLT, 6, 0.000000
D16, 2, 1
MOT, 76, 301, 219, 0
ATT, 0.00, 10.90, 0.00, -1.81, 0.00, 41.35, 0.00
DFLT, 1, -0.235581
DFLT, 3, 0.000000
DFLT, 4, 0.000000
DFLT, 5, 0.000000
DFLT, 6, 0.000000
D16, 2, 1
MOT, 221, 289, 214, 0
ATT, 0.00, 10.86, 0.00, -1.77, 0.00, 41.08, 0.00
DFLT, 1, -0.229857
DFLT, 3, 0.000000
DFLT, 4, 0.000000
DFLT, 5, 0.000000
DFLT, 6, 0.000000
D16, 2, 1
MOT, 378, 273, 203, 0
ATT, 0.00, 10.75, 0.00, -1.72, 0.00, 40.84, 0.00
DFLT, 1, -0.218765
DFLT, 3, 0.000000
DFLT, 4, 0.000000
DFLT, 5, 0.000000
DFLT, 6, 0.000000
D16, 2, 1
MOT, 550, 241, 203, 0
ATT, 0.00, 10.56, 0.00, -1.66, 0.00, 40.58, 0.00
DFLT, 1, -0.217657
DFLT, 3, 0.000000
DFLT, 4, 0.000000
DFLT, 5, 0.000000
DFLT, 6, 0.000000
D16, 2, 1
MOT, 751, 227, 200, 0
ATT, 0.00, 10.30, 0.00, -1.61, 0.00, 40.34, 0.00
DFLT, 1, -0.214472
DFLT, 3, 0.000000
DFLT, 4, 0.000000
DFLT, 5, 0.000000
DFLT, 6, 0.000000
D16, 2, 1
MOT, 912, 175, 186, 0
ATT, 0.00, 9.96, 0.00, -1.54, 0.00, 40.12, 0.00
DFLT, 1, -0.200160
DFLT, 3, 0.000000
DFLT, 4, 0.000000
DFLT, 5, 0.000000
DFLT, 6, 0.000000
D16, 2, 1
MOT, 1050, 119, 183, 0
ATT, 0.00, 9.57, 0.00, -1.48, 0.00, 39.90, 0.00
DFLT, 1, -0.196224
DFLT, 3, 0.000000
DFLT, 4, 0.000000
DFLT, 5, 0.000000
DFLT, 6, 0.000000
D16, 2, 1
MOT, 1210, 90, 188, 0
ATT, 0.00, 9.10, 0.00, -1.40, 0.00, 39.68, 0.00
DFLT, 1, -0.201642
DFLT, 3, 0.000000
DFLT, 4, 0.000000
DFLT, 5, 0.000000
DFLT, 6, 0.000000
D16, 2, 1
MOT, 1246, 84, 178, 0
ATT, 0.00, 8.65, 0.00, -1.31, 0.00, 39.47, 0.00
DFLT, 1, -0.190500
DFLT, 3, 0.000000
DFLT, 4, 0.000000
DFLT, 5, 0.000000
DFLT, 6, 0.000000
D16, 2, 1
MOT, 1291, 27, 174, 0
ATT, 0.00, 8.20, 0.00, -1.20, 0.00, 39.28, 0.00
DFLT, 1, -0.185490
DFLT, 3, 0.000000
DFLT, 4, 0.000000
DFLT, 5, 0.000000
DFLT, 6, 0.000000
D16, 2, 1
MOT, 1306, 40, 176, 0
ATT, 0.00, 7.78, 0.00, -1.11, 0.00, 39.07, 0.00
DFLT, 1, -0.187279
DFLT, 3, 0.000000
DFLT, 4, 0.000000
DFLT, 5, 0.000000
DFLT, 6, 0.000000
D16, 2, 1
MOT, 1227, 74, 176, 0
ATT, 0.00, 7.46, 0.00, -1.03, 0.00, 38.86, 0.00
DFLT, 1, -0.186649
DFLT, 3, 0.000000
DFLT, 4, 0.000000
DFLT, 5, 0.000000
DFLT, 6, 0.000000
D16, 2, 1
MOT, 1157, 98, 179, 0
ATT, 0.00, 7.20, 0.00, -0.95, 0.00, 38.64, 0.00
DFLT, 1, -0.189426
DFLT, 3, 0.000000
DFLT, 4, 0.000000
DFLT, 5, 0.000000
DFLT, 6, 0.000000
D16, 2, 1
MOT, 1063, 149, 180, 0
ATT, 0.00, 7.01, 0.00, -0.92, 0.00, 38.43, 0.00
DFLT, 1, -0.190857
DFLT, 3, 0.000000
DFLT, 4, 0.000000
DFLT, 5, 0.000000
DFLT, 6, 0.000000
D16, 2, 1
MOT, 873, 193, 178, 0
ATT, 0.00, 6.93, 0.00, -0.94, 0.00, 38.21, 0.00
DFLT, 1, -0.189068
DFLT, 3, 0.000000
DFLT, 4, 0.000000
DFLT, 5, 0.000000
DFLT, 6, 0.000000
D16, 2, 1
MOT, 708, 222, 189, 0
ATT, 0.00, 6.93, 0.00, -0.98, 0.00, 37.97, 0.00
DFLT, 1, -0.199938
DFLT, 3, 0.000000
DFLT, 4, 0.000000
DFLT, 5, 0.000000
DFLT, 6, 0.000000
D16, 2, 1
MOT, 504, 245, 184, 0
ATT, 0.00, 7.00, 0.00, -1.03, 0.00, 37.74, 0.00
DFLT, 1, -0.195150
DFLT, 3, 0.000000
DFLT, 4, 0.000000
DFLT, 5, 0.000000
DFLT, 6, 0.000000
D16, 2, 1
MOT, 311, 264, 181, 0
ATT, 0.00, 7.18, 0.00, -1.08, 0.00, 37.52, 0.00
DFLT, 1, -0.191930
DFLT, 3, 0.000000
DFLT, 4, 0.000000
DFLT, 5, 0.000000
DFLT, 6, 0.000000
D16, 2, 1
MOT, 159, 327, 184, 0
ATT, 0.00, 7.45, 0.00, -1.14, 0.00, 37.28, 0.00
DFLT, 1, -0.196224
DFLT, 3, 0.000000
DFLT, 4, 0.000000
DFLT, 5, 0.000000
DFLT, 6, 0.000000
D16, 2, 1
MOT, 11, 375, 179, 0
ATT, 0.00, 7.80, 0.00, -1.21, 0.00, 37.04, 0.00
DFLT, 1, -0.190397
DFLT, 3, 0.000000
DFLT, 4, 0.000000
DFLT, 5, 0.000000
DFLT, 6, 0.000000
D16, 2, 1
MOT, -165, 401, 179, 0
ATT, 0.00, 8.20, 0.00, -1.27, 0.00, 36.81, 0.00
DFLT, 1, -0.191215
DFLT, 3, 0.000000
DFLT, 4, 0.000000
DFLT, 5, 0.000000
DFLT, 6, 0.000000
D16, 2, 1
MOT, -246, 420, 181, 0
ATT, 0.00, 8.62, 0.00, -1.36, 0.00, 36.57, 0.00
DFLT, 1, -0.193719
DFLT, 3, 0.000000
DFLT, 4, 0.000000
DFLT, 5, 0.000000
DFLT, 6, 0.000000
D16, 2, 1
MOT, -288, 467, 182, 0
ATT, 0.00, 9.03, 0.00, -1.46, 0.00, 36.33, 0.00
DFLT, 1, -0.195150
DFLT, 3, 0.000000
DFLT, 4, 0.000000
DFLT, 5, 0.000000
DFLT, 6, 0.000000
D16, 2, 1
MOT, -321, 457, 169, 0
ATT, 0.00, 9.44, 0.00, -1.57, 0.00, 36.09, 0.00
DFLT, 1, -0.182219
DFLT, 3, 0.000000
DFLT, 4, 0.000000
DFLT, 5, 0.000000
DFLT, 6, 0.000000
D16, 2, 1
MOT, -319, 433, 169, 0
ATT, 0.00, 9.80, 0.00, -1.68, 0.00, 35.86, 0.00
DFLT, 1, -0.182627
DFLT, 3, 0.000000
DFLT, 4, 0.000000
DFLT, 5, 0.000000
DFLT, 6, 0.000000
D16, 2, 1
MOT, -248, 457, 161, 0
ATT, 0.00, 10.10, 0.00, -1.78, 0.00, 35.65, 0.00
DFLT, 1, -0.174756
DFLT, 3, 0.000000
DFLT, 4, 0.000000
DFLT, 5, 0.000000
DFLT, 6, 0.000000
D16, 2, 1
MOT, -156, 434, 156, 0
ATT, 0.00, 10.31, 0.00, -1.84, 0.00, 35.44, 0.00
DFLT, 1, -0.169747
DFLT, 3, 0.000000
DFLT, 4, 0.000000
DFLT, 5, 0.000000
DFLT, 6, 0.000000
D16, 2, 1
MOT, 13, 405, 148, 0
ATT, 0.00, 10.43, 0.00, -1.88, 0.00, 35.23, 0.00
DFLT, 1, -0.161774
DFLT, 3, 0.000000
DFLT, 4, 0.000000
DFLT, 5, 0.000000
DFLT, 6, 0.000000
D16, 2, 1
MOT, 120, 399, 138, 0
ATT, 0.00, 10.49, 0.00, -1.89, 0.00, 35.05, 0.00
DFLT, 1, -0.151858
DFLT, 3, 0.000000
DFLT, 4, 0.000000
DFLT, 5, 0.000000
DFLT, 6, 0.000000
D16, 2, 1
MOT, 244, 370, 134, 0
ATT, 0.00, 10.48, 0.00, -1.91, 0.00, 34.87, 0.00
DFLT, 1, -0.147564
DFLT, 3, 0.000000
DFLT, 4, 0.000000
DFLT, 5, 0.000000
DFLT, 6, 0.000000
D16, 2, 1
MOT, 413, 352, 136, 0
ATT, 0.00, 10.39, 0.00, -1.90, 0.00, 34.70, 0.00
DFLT, 1, -0.148995
DFLT, 3, 0.000000
DFLT, 4, 0.000000
DFLT, 5, 0.000000
DFLT, 6, 0.000000
D16, 2, 1
MOT, 528, 343, 129, 0
ATT, 0.00, 10.23, 0.00, -1.91, 0.00, 34.52, 0.00
DFLT, 1, -0.141669
DFLT, 3, 0.000000
DFLT, 4, 0.000000
DFLT, 5, 0.000000
DFLT, 6, 0.000000
D16, 2, 1
MOT, 598, 265, 123, 0
ATT, 0.00, 10.04, 0.00, -1.90, 0.00, 34.37, 0.00
DFLT, 1, -0.135757
DFLT, 3, 0.000000
DFLT, 4, 0.000000
DFLT, 5, 0.000000
DFLT, 6, 0.000000
D16, 2, 1
MOT, 723, 231, 123, 0
ATT, 0.00, 9.80, 0.00, -1.88, 0.00, 34.22, 0.00
DFLT, 1, -0.135757
DFLT, 3, 0.000000
DFLT, 4, 0.000000
DFLT, 5, 0.000000
DFLT, 6, 0.000000
D16, 2, 1
MOT, 816, 220, 122, 0
ATT, 0.00, 9.53, 0.00, -1.84, 0.00, 34.07, 0.00
DFLT, 1, -0.133968
DFLT, 3, 0.000000
DFLT, 4, 0.000000
DFLT, 5, 0.000000
DFLT, 6, 0.000000
D16, 2, 1
MOT, 812, 196, 115, 0
ATT, 0.00, 9.25, 0.00, -1.78, 0.00, 33.93, 0.00
DFLT, 1, -0.126676
DFLT, 3, 0.000000
DFLT, 4, 0.000000
DFLT, 5, 0.000000
DFLT, 6, 0.000000
D16, 2, 1
MOT, 907, 190, 113, 0
ATT, 0.00, 8.96, 0.00, -1.71, 0.00, 33.79, 0.00
DFLT, 1, -0.124308
DFLT, 3, 0.000000
DFLT, 4, 0.000000
DFLT, 5, 0.000000
DFLT, 6, 0.000000
D16, 2, 1
MOT, 945, 195, 110, 0
ATT, 0.00, 8.69, 0.00, -1.65, 0.00, 33.66, 0.00
DFLT, 1, -0.120372
DFLT, 3, 0.000000
DFLT, 4, 0.000000
DFLT, 5, 0.000000
DFLT, 6, 0.000000
D16, 2, 1
MOT, 913, 183, 106, 0
ATT, 0.00, 8.45, 0.00, -1.59, 0.00, 33.53, 0.00
DFLT, 1, -0.116794
DFLT, 3, 0.000000
DFLT, 4, 0.000000
DFLT, 5, 0.000000
DFLT, 6, 0.000000
D16, 2, 1
MOT, 928, 215, 104, 0
ATT, 0.00, 8.23, 0.00, -1.55, 0.00, 33.40, 0.00
DFLT, 1, -0.114068
DFLT, 3, 0.000000
DFLT, 4, 0.000000
DFLT, 5, 0.000000
DFLT, 6, 0.000000
D16, 2, 1
MOT, 857, 201, 96, 0
ATT, 0.00, 8.07, 0.00, -1.53, 0.00, 33.28, 0.00
DFLT, 1, -0.105702
DFLT, 3, 0.000000
DFLT, 4, 0.000000
DFLT, 5, 0.000000
DFLT, 6, 0.000000
D16, 2, 1
MOT, 748, 192, 96, 0
ATT, 0.00, 7.98, 0.00, -1.52, 0.00, 33.16, 0.00
DFLT, 1, -0.105702
DFLT, 3, 0.000000
DFLT, 4, 0.000000
DFLT, 5, 0.000000
DFLT, 6, 0.000000
D16, 2, 1
MOT, 667, 249, 99, 0
ATT, 0.00, 7.94, 0.00, -1.53, 0.00, 33.03, 0.00
DFLT, 1, -0.108923
DFLT, 3, 0.000000
DFLT, 4, 0.000000
DFLT, 5, 0.000000
DFLT, 6, 0.000000
D16, 2, 1
MOT, 558, 242, 98, 0
ATT, 0.00, 7.94, 0.00, -1.53, 0.00, 32.90, 0.00
DFLT, 1, -0.107935
DFLT, 3, 0.000000
DFLT, 4, 0.000000
DFLT, 5, 0.000000
DFLT, 6, 0.000000
D16, 2, 1
MOT, 388, 265, 91, 0
ATT, 0.00, 8.00, 0.00, -1.55, 0.00, 32.79, 0.00
DFLT, 1, -0.100693
DFLT, 3, 0.000000
DFLT, 4, 0.000000
DFLT, 5, 0.000000
DFLT, 6, 0.000000
D16, 2, 1
MOT, 300, 294, 90, 0
ATT, 0.00, 8.14, 0.00, -1.58, 0.00, 32.67, 0.00
DFLT, 1, -0.099978
DFLT, 3, 0.000000
DFLT, 4, 0.000000
DFLT, 5, 0.000000
DFLT, 6, 0.000000
D16, 2, 1
MOT, 143, 301, 90, 0
ATT, 0.00, 8.34, 0.00, -1.58, 0.00, 32.55, 0.00
DFLT, 1, -0.099978
DFLT, 3, 0.000000
DFLT, 4, 0.000000
DFLT, 5, 0.000000
DFLT, 6, 0.000000
D16, 2, 1
MOT, 5, 303, 79, 0
ATT, 0.00, 8.59, 0.00, -1.60, 0.00, 32.44, 0.00
DFLT, 1, -0.087830
DFLT, 3, 0.000000
DFLT, 4, 0.000000
DFLT, 5, 0.000000
DFLT, 6, 0.000000
D16, 2, 1
MOT, -30, 318, 80, 0
ATT, 0.00, 8.88, 0.00, -1.61, 0.00, 32.33, 0.00
DFLT, 1, -0.089960
DFLT, 3, 0.000000
DFLT, 4, 0.000000
DFLT, 5, 0.000000
DFLT, 6, 0.000000
D16, 2, 1
MOT, -111, 323, 81, 0
ATT, 0.00, 9.18, 0.00, -1.64, 0.00, 32.22, 0.00
DFLT, 1, -0.091033
DFLT, 3, 0.000000
DFLT, 4, 0.000000
DFLT, 5, 0.000000
DFLT, 6, 0.000000
D16, 2, 1
MOT, -153, 304, 76, 0
ATT, 0.00, 9.47, 0.00, -1.66, 0.00, 32.11, 0.00
DFLT, 1, -0.085308
DFLT, 3, 0.000000
DFLT, 4, 0.000000
DFLT, 5, 0.000000
DFLT, 6, 0.000000
D16, 2, 1
MOT, -92, 296, 74, 0
ATT, 0.00, 9.71, 0.00, -1.69, 0.00, 32.01, 0.00
DFLT, 1, -0.083741
DFLT, 3, 0.000000
DFLT, 4, 0.000000
DFLT, 5, 0.000000
DFLT, 6, 0.000000
D16, 2, 1
MOT, -14, 291, 73, 0
ATT, 0.00, 9.88, 0.00, -1.73, 0.00, 31.91, 0.00
DFLT, 1, -0.082446
DFLT, 3, 0.000000
DFLT, 4, 0.000000
DFLT, 5, 0.000000
DFLT, 6, 0.000000
D16, 2, 1
MOT, 43, 287, 61, 0
ATT, 0.00, 9.99, 0.00, -1.74, 0.00, 31.83, 0.00
DFLT, 1, -0.070996
DFLT, 3, 0.000000
DFLT, 4, 0.000000
DFLT, 5, 0.000000
DFLT, 6, 0.000000
D16, 2, 1
MOT, 207, 257, 50, 0
ATT, 0.00, 10.03, 0.00, -1.73, 0.00, 31.76, 0.00
DFLT, 1, -0.059189
DFLT, 3, 0.000000
DFLT, 4, 0.000000
DFLT, 5, 0.000000
DFLT, 6, 0.000000
D16, 2, 1
MOT, 348, 245, 43, 0
ATT, 0.00, 9.99, 0.00, -1.72, 0.00, 31.70, 0.00
DFLT, 1, -0.051710
DFLT, 3, 0.000000
DFLT, 4, 0.000000
DFLT, 5, 0.000000
DFLT, 6, 0.000000
D16, 2, 1
MOT, 492, 267, 40, 0
ATT, 0.00, 9.90, 0.00, -1.71, 0.00, 31.64, 0.00
DFLT, 1, -0.048098
DFLT, 3, 0.000000
DFLT, 4, 0.000000
DFLT, 5, 0.000000
DFLT, 6, 0.000000
D16, 2, 1
MOT, 685, 261, 30, 0
ATT, 0.00, 9.72, 0.00, -1.69, 0.00, 31.59, 0.00
DFLT, 1, -0.038080
DFLT, 3, 0.000000
DFLT, 4, 0.000000
DFLT, 5, 0.000000
DFLT, 6, 0.000000
D16, 2, 1
MOT, 826, 235, 21, 0
ATT, 0.00, 9.48, 0.00, -1.68, 0.00, 31.56, 0.00
DFLT, 1, -0.028061
DFLT, 3, 0.000000
DFLT, 4, 0.000000
DFLT, 5, 0.000000
DFLT, 6, 0.000000
D16, 2, 1
MOT, 890, 229, 18, 0
ATT, 0.00, 9.19, 0.00, -1.68, 0.00, 31.53, 0.00
DFLT, 1, -0.025471
DFLT, 3, 0.000000
DFLT, 4, 0.000000
DFLT, 5, 0.000000
DFLT, 6, 0.000000
D16, 2, 1
MOT, 1020, 220, 23, 0
ATT, 0.00, 8.88, 0.00, -1.68, 0.00, 31.50, 0.00
DFLT, 1, -0.030566
DFLT, 3, 0.000000
DFLT, 4, 0.000000
DFLT, 5, 0.000000
DFLT, 6, 0.000000
D16, 2, 1
MOT, 1044, 212, 20, 0
ATT, 0.00, 8.54, 0.00, -1.66, 0.00, 31.47, 0.00
DFLT, 1, -0.027346
DFLT, 3, 0.000000
DFLT, 4, 0.000000
DFLT, 5, 0.000000
DFLT, 6, 0.000000
D16, 2, 1
MOT, 1001, 178, 9, 0
ATT, 0.00, 8.22, 0.00, -1.64, 0.00, 31.46, 0.00
DFLT, 1, -0.015539
DFLT, 3, 0.000000
DFLT, 4, 0.000000
DFLT, 5, 0.000000
DFLT, 6, 0.000000
D16, 2, 1
MOT, 1010, 162, 11, 0
ATT, 0.00, 7.93, 0.00, -1.60, 0.00, 31.44, 0.00
DFLT, 1, -0.017293
DFLT, 3, 0.000000
DFLT, 4, 0.000000
DFLT, 5, 0.000000
DFLT, 6, 0.000000
D16, 2, 1
MOT, 954, 202, 15, 0
ATT, 0.00, 7.72, 0.00, -1.57, 0.00, 31.42, 0.00
DFLT, 1, -0.021621
DFLT, 3, 0.000000
DFLT, 4, 0.000000
DFLT, 5, 0.000000
DFLT, 6, 0.000000
D16, 2, 1
MOT, 842, 203, 10, 0
ATT, 0.00, 7.59, 0.00, -1.53, 0.00, 31.40, 0.00
DFLT, 1, -0.016254
DFLT, 3, 0.000000
DFLT, 4, 0.000000
DFLT, 5, 0.000000
DFLT, 6, 0.000000
D16, 2, 1
MOT, 782, 222, 9, 0
ATT, 0.00, 7.51, 0.00, -1.51, 0.00, 31.38, 0.00
DFLT, 1, -0.014465
DFLT, 3, 0.000000
DFLT, 4, 0.000000
DFLT, 5, 0.000000
DFLT, 6, 0.000000
D16, 2, 1
MOT, 664, 254, 11, 0
ATT, 0.00, 7.50, 0.00, -1.52, 0.00, 31.36, 0.00
DFLT, 1, -0.017293
DFLT, 3, 0.000000
DFLT, 4, 0.000000
DFLT, 5, 0.000000
DFLT, 6, 0.000000
D16, 2, 1
MOT, 475, 263, 13, 0
ATT, 0.00, 7.59, 0.00, -1.55, 0.00, 31.33, 0.00
DFLT, 1, -0.018759
DFLT, 3, 0.000000
DFLT, 4, 0.000000
DFLT, 5, 0.000000
DFLT, 6, 0.000000
D16, 2, 1
MOT, 339, 275, 13, 0
ATT, 0.00, 7.70, 0.00, -1.59, 0.00, 31.31, 0.00
DFLT, 1, -0.019475
DFLT, 3, 0.000000
DFLT, 4, 0.000000
DFLT, 5, 0.000000
DFLT, 6, 0.000000
D16, 2, 1
MOT, 200, 286, 13, 0
ATT, 0.00, 7.88, 0.00, -1.63, 0.00, 31.28, 0.00
DFLT, 1, -0.019832
DFLT, 3, 0.000000
DFLT, 4, 0.000000
DFLT, 5, 0.000000
DFLT, 6, 0.000000
D16, 2, 1
MOT, 72, 331, 9, 0
ATT, 0.00, 8.14, 0.00, -1.69, 0.00, 31.25, 0.00
DFLT, 1, -0.015249
DFLT, 3, 0.000000
DFLT, 4, 0.000000
DFLT, 5, 0.000000
DFLT, 6, 0.000000
D16, 2, 1
MOT, -29, 367, 10, 0
ATT, 0.00, 8.43, 0.00, -1.74, 0.00, 31.23, 0.00
DFLT, 1, -0.016612
DFLT, 3, 0.000000
DFLT, 4, 0.000000
DFLT, 5, 0.000000
DFLT, 6, 0.000000
D16, 2, 1
MOT, -146, 430, 7, 0
ATT, 0.00, 8.76, 0.00, -1.81, 0.00, 31.20, 0.00
DFLT, 1, -0.013750
DFLT, 3, 0.000000
DFLT, 4, 0.000000
DFLT, 5, 0.000000
DFLT, 6, 0.000000
D16, 2, 1
MOT, -292, 454, -1, 0
ATT, 0.00, 9.13, 0.00, -1.90, 0.00, 31.17, 0.00
DFLT, 1, -0.005163
DFLT, 3, 0.000000
DFLT, 4, 0.000000
DFLT, 5, 0.000000
DFLT, 6, 0.000000
D16, 2, 1
MOT, -337, 501, 7, 0
ATT, 0.00, 9.53, 0.00, -2.00, 0.00, 31.13, 0.00
DFLT, 1, -0.015590
DFLT, 3, 0.000000
DFLT, 4, 0.000000
DFLT, 5, 0.000000
DFLT, 6, 0.000000
D16, 2, 1
MOT, -375, 514, 0, 0
ATT, 0.00, 9.90, 0.00, -2.10, 0.00, 31.10, 0.00
DFLT, 1, -0.007309
DFLT, 3, 0.000000
DFLT, 4, 0.000000
DFLT, 5, 0.000000
DFLT, 6, 0.000000
D16, 2, 1
MOT, -413, 482, -12, 0
ATT, 0.00, 10.26, 0.00, -2.20, 0.00, 31.09, 0.00
DFLT, 1, 0.004496
DFLT, 3, 0.000000
DFLT, 4, 0.000000
DFLT, 5, 0.000000
DFLT, 6, 0.000000
D16, 2, 1
MOT, -403, 465, -12, 0
ATT, 0.00, 10.59, 0.00, -2.30, 0.00, 31.08, 0.00
DFLT, 1, 0.004139
DFLT, 3, 0.000000
DFLT, 4, 0.000000
DFLT, 5, 0.000000
DFLT, 6, 0.000000
D16, 2, 1
MOT, -300, 449, -9, 0
ATT, 0.00, 10.85, 0.00, -2.38, 0.00, 31.07, 0.00
DFLT, 1, 0.000425
DFLT, 3, 0.000000
DFLT, 4, 0.000000
DFLT, 5, 0.000000
DFLT, 6, 0.000000
D16, 2, 1
MOT, -204, 397, -20, 0
ATT, 0.00, 11.00, 0.00, -2.43, 0.00, 31.08, 0.00
DFLT, 1, 0.012010
DFLT, 3, 0.000000
DFLT, 4, 0.000000
DFLT, 5, 0.000000
DFLT, 6, 0.000000
D16, 2, 1
MOT, -72, 371, -26, 0
ATT, 0.00, 11.09, 0.00, -2.43, 0.00, 31.09, 0.00
DFLT, 1, 0.018093
DFLT, 3, 0.000000
DFLT, 4, 0.000000
DFLT, 5, 0.000000
DFLT, 6, 0.000000
D16, 2, 1
MOT, 97, 320, -36, 0
ATT, 0.00, 11.10, 0.00, -2.42, 0.00, 31.13, 0.00
DFLT, 1, 0.028826
DFLT, 3, 0.000000
DFLT, 4, 0.000000
DFLT, 5, 0.000000
DFLT, 6, 0.000000
D16, 2, 1
MOT, 233, 290, -39, 0
ATT, 0.00, 11.02, 0.00, -2.38, 0.00, 31.17, 0.00
DFLT, 1, 0.032115
DFLT, 3, 0.000000
DFLT, 4, 0.000000
DFLT, 5, 0.000000
DFLT, 6, 0.000000
D16, 2, 1
MOT, 408, 235, -51, 0
ATT, 0.00, 10.86, 0.00, -2.31, 0.00, 31.23, 0.00
DFLT, 1, 0.044212
DFLT, 3, 0.000000
DFLT, 4, 0.000000
DFLT, 5, 0.000000
DFLT, 6, 0.000000
D16, 2, 1
MOT, 595, 202, -57, 0
ATT, 0.00, 10.64, 0.00, -2.24, 0.00, 31.30, 0.00
DFLT, 1, 0.051726
DFLT, 3, 0.000000
DFLT, 4, 0.000000
DFLT, 5, 0.000000
DFLT, 6, 0.000000
D16, 2, 1
MOT, 730, 151, -60, 0
ATT, 0.00, 10.35, 0.00, -2.18, 0.00, 31.37, 0.00
DFLT, 1, 0.054230
DFLT, 3, 0.000000
DFLT, 4, 0.000000
DFLT, 5, 0.000000
DFLT, 6, 0.000000
D16, 2, 1
MOT, 816, 112, -54, 0
ATT, 0.00, 10.03, 0.00, -2.10, 0.00, 31.45, 0.00
DFLT, 1, 0.048812
DFLT, 3, 0.000000
DFLT, 4, 0.000000
DFLT, 5, 0.000000
DFLT, 6, 0.000000
D16, 2, 1
MOT, 960, 59, -58, 0
ATT, 0.00, 9.65, 0.00, -1.99, 0.00, 31.53, 0.00
DFLT, 1, 0.053872
DFLT, 3, 0.000000
DFLT, 4, 0.000000
DFLT, 5, 0.000000
DFLT, 6, 0.000000
D16, 2, 1
MOT, 1033, 11, -57, 0
ATT, 0.00, 9.26, 0.00, -1.87, 0.00, 31.61, 0.00
DFLT, 1, 0.052798
DFLT, 3, 0.000000
DFLT, 4, 0.000000
DFLT, 5, 0.000000
DFLT, 6, 0.000000
D16, 2, 1
MOT, 1018, -2, -51, 0
ATT, 0.00, 8.91, 0.00, -1.75, 0.00, 31.69, 0.00
DFLT, 1, 0.047790
DFLT, 3, 0.000000
DFLT, 4, 0.000000
DFLT, 5, 0.000000
DFLT, 6, 0.000000
D16, 2, 1
MOT, 1010, 14, -54, 0
ATT, 0.00, 8.57, 0.00, -1.62, 0.00, 31.77, 0.00
DFLT, 1, 0.051197
DFLT, 3, 0.000000
DFLT, 4, 0.000000
DFLT, 5, 0.000000
DFLT, 6, 0.000000
D16, 2, 1
MOT, 1000, 18, -59, 0
ATT, 0.00, 8.26, 0.00, -1.49, 0.00, 31.85, 0.00
DFLT, 1, 0.056734
DFLT, 3, 0.000000
DFLT, 4, 0.000000
DFLT, 5, 0.000000
DFLT, 6, 0.000000
D16, 2, 1
MOT, 871, 57, -61, 0
ATT, 0.00, 8.05, 0.00, -1.41, 0.00, 31.93, 0.00
DFLT, 1, 0.059597
DFLT, 3, 0.000000
DFLT, 4, 0.000000
DFLT, 5, 0.000000
DFLT, 6, 0.000000
D16, 2, 1
MOT, 770, 120, -62, 0
ATT, 0.00, 7.94, 0.00, -1.36, 0.00, 32.00, 0.00
DFLT, 1, 0.060670
DFLT, 3, 0.000000
DFLT, 4, 0.000000
DFLT, 5, 0.000000
DFLT, 6, 0.000000
D16, 2, 1
MOT, 679, 179, -61, 0
ATT, 0.00, 7.88, 0.00, -1.33, 0.00, 32.07, 0.00
DFLT, 1, 0.059375
DFLT, 3, 0.000000
DFLT, 4, 0.000000
DFLT, 5, 0.000000
DFLT, 6, 0.000000
D16, 2, 1
MOT, 494, 200, -56, 0
ATT, 0.00, 7.91, 0.00, -1.34, 0.00, 32.13, 0.00
DFLT, 1, 0.054587
DFLT, 3, 0.000000
DFLT, 4, 0.000000
DFLT, 5, 0.000000
DFLT, 6, 0.000000
D16, 2, 1
MOT, 333, 226, -57, 0
ATT, 0.00, 8.01, 0.00, -1.37, 0.00, 32.19, 0.00
DFLT, 1, 0.055304
DFLT, 3, 0.000000
DFLT, 4, 0.000000
DFLT, 5, 0.000000
DFLT, 6, 0.000000
D16, 2, 1
MOT, 203, 269, -51, 0
ATT, 0.00, 8.17, 0.00, -1.42, 0.00, 32.24, 0.00
DFLT, 1, 0.049220
DFLT, 3, 0.000000
DFLT, 4, 0.000000
DFLT, 5, 0.000000
DFLT, 6, 0.000000
D16, 2, 1
MOT, 5, 251, -52, 0
ATT, 0.00, 8.41, 0.00, -1.47, 0.00, 32.30, 0.00
DFLT, 1, 0.049493
DFLT, 3, 0.000000
DFLT, 4, 0.000000
DFLT, 5, 0.000000
DFLT, 6, 0.000000
D16, 2, 1
MOT, -143, 300, -58, 0
ATT, 0.00, 8.70, 0.00, -1.54, 0.00, 32.35, 0.00
DFLT, 1, 0.054945
DFLT, 3, 0.000000
DFLT, 4, 0.000000
DFLT, 5, 0.000000
DFLT, 6, 0.000000
D16, 2, 1
MOT, -268, 341, -59, 0
ATT, 0.00, 9.07, 0.00, -1.61, 0.00, 32.40, 0.00
DFLT, 1, 0.056019
DFLT, 3, 0.000000
DFLT, 4, 0.000000
DFLT, 5, 0.000000
DFLT, 6, 0.000000
D16, 2, 1
MOT, -354, 357, -61, 0
ATT, 0.00, 9.45, 0.00, -1.67, 0.00, 32.46, 0.00
DFLT, 1, 0.058165
DFLT, 3, 0.000000
DFLT, 4, 0.000000
DFLT, 5, 0.000000
DFLT, 6, 0.000000
D16, 2, 1
MOT, -400, 396, -71, 0
ATT, 0.00, 9.84, 0.00, -1.74, 0.00, 32.52, 0.00
DFLT, 1, 0.067894
DFLT, 3, 0.000000
DFLT, 4, 0.000000
DFLT, 5, 0.000000
DFLT, 6, 0.000000
D16, 2, 1
MOT, -386, 398, -72, 0
ATT, 0.00, 10.21, 0.00, -1.81, 0.00, 32.58, 0.00
DFLT, 1, 0.068899
DFLT, 3, 0.000000
DFLT, 4, 0.000000
DFLT, 5, 0.000000
DFLT, 6, 0.000000
D16, 2, 1
MOT, -400, 407, -73, 0
ATT, 0.00, 10.54, 0.00, -1.90, 0.00, 32.65, 0.00
DFLT, 1, 0.068899
DFLT, 3, 0.000000
DFLT, 4, 0.000000
DFLT, 5, 0.000000
DFLT, 6, 0.000000
D16, 2, 1
MOT, -382, 390, -81, 0
ATT, 0.00, 10.81, 0.00, -1.98, 0.00, 32.72, 0.00
DFLT, 1, 0.076771
DFLT, 3, 0.000000
DFLT, 4, 0.000000
DFLT, 5, 0.000000
DFLT, 6, 0.000000
D16, 2, 1
MOT, -250, 371, -86, 0
ATT, 0.00, 11.01, 0.00, -2.07, 0.00, 32.81, 0.00
DFLT, 1, 0.082206
DFLT, 3, 0.000000
DFLT, 4, 0.000000
DFLT, 5, 0.000000
DFLT, 6, 0.000000
D16, 2, 1
MOT, -136, 366, -87, 0
ATT, 0.00, 11.12, 0.00, -2.14, 0.00, 32.89, 0.00
DFLT, 1, 0.082495
DFLT, 3, 0.000000
DFLT, 4, 0.000000
DFLT, 5, 0.000000
DFLT, 6, 0.000000
D16, 2, 1
MOT, -36, 333, -97, 0
ATT, 0.00, 11.18, 0.00, -2.19, 0.00, 32.99, 0.00
DFLT, 1, 0.092872
DFLT, 3, 0.000000
DFLT, 4, 0.000000
DFLT, 5, 0.000000
DFLT, 6, 0.000000
D16, 2, 1
MOT, 105, 306, -102, 0
ATT, 0.00, 11.14, 0.00, -2.20, 0.00, 33.11, 0.00
DFLT, 1, 0.098239
DFLT, 3, 0.000000
DFLT, 4, 0.000000
DFLT, 5, 0.000000
DFLT, 6, 0.000000
D16, 2, 1
MOT, 288, 277, -108, 0
ATT, 0.00, 11.03, 0.00, -2.20, 0.00, 33.23, 0.00
DFLT, 1, 0.104696
DFLT, 3, 0.000000
DFLT, 4, 0.000000
DFLT, 5, 0.000000
DFLT, 6, 0.000000
D16, 2, 1
MOT, 391, 246, -111, 0
ATT, 0.00, 10.87, 0.00, -2.16, 0.00, 33.36, 0.00
DFLT, 1, 0.107899
DFLT, 3, 0.000000
DFLT, 4, 0.000000
DFLT, 5, 0.000000
DFLT, 6, 0.000000
D16, 2, 1
MOT, 477, 213, -120, 0
ATT, 0.00, 10.69, 0.00, -2.12, 0.00, 33.50, 0.00
DFLT, 1, 0.116844
DFLT, 3, 0.000000
DFLT, 4, 0.000000
DFLT, 5, 0.000000
DFLT, 6, 0.000000
D16, 2, 1
MOT, 555, 177, -124, 0
ATT, 0.00, 10.48, 0.00, -2.07, 0.00, 33.64, 0.00
DFLT, 1, 0.121137
DFLT, 3, 0.000000
DFLT, 4, 0.000000
DFLT, 5, 0.000000
DFLT, 6, 0.000000
D16, 2, 1
MOT, 624, 143, -128, 0
ATT, 0.00, 10.23, 0.00, -2.02, 0.00, 33.81, 0.00
DFLT, 1, 0.126163
DFLT, 3, 0.000000
DFLT, 4, 0.000000
DFLT, 5, 0.000000
DFLT, 6, 0.000000
D16, 2, 1
MOT, 680, 115, -119, 0
ATT, 0.00, 9.99, 0.00, -1.96, 0.00, 33.95, 0.00
DFLT, 1, 0.117201
DFLT, 3, 0.000000
DFLT, 4, 0.000000
DFLT, 5, 0.000000
DFLT, 6, 0.000000
D16, 2, 1
MOT, 721, 92, -120, 0
ATT, 0.00, 9.74, 0.00, -1.89, 0.00, 34.10, 0.00
DFLT, 1, 0.118275
DFLT, 3, 0.000000
DFLT, 4, 0.000000
DFLT, 5, 0.000000
DFLT, 6, 0.000000
D16, 2, 1
MOT, 763, 58, -123, 0
ATT, 0.00, 9.47, 0.00, -1.81, 0.00, 34.26, 0.00
DFLT, 1, 0.121495
DFLT, 3, 0.000000
DFLT, 4, 0.000000
DFLT, 5, 0.000000
DFLT, 6, 0.000000
D16, 2, 1
MOT, 783, 23, -116, 0
ATT, 0.00, 9.20, 0.00, -1.72, 0.00, 34.41, 0.00
DFLT, 1, 0.114578
DFLT, 3, 0.000000
DFLT, 4, 0.000000
DFLT, 5, 0.000000
DFLT, 6, 0.000000
D16, 2, 1
MOT, 756, 50, -115, 0
ATT, 0.00, 8.99, 0.00, -1.64, 0.00, 34.56, 0.00
DFLT, 1, 0.113981
DFLT, 3, 0.000000
DFLT, 4, 0.000000
DFLT, 5, 0.000000
DFLT, 6, 0.000000
D16, 2, 1
MOT, 708, 12, -121, 0
ATT, 0.00, 8.79, 0.00, -1.53, 0.00, 34.71, 0.00
DFLT, 1, 0.120779
DFLT, 3, 0.000000
DFLT, 4, 0.000000
DFLT, 5, 0.000000
DFLT, 6, 0.000000
D16, 2, 1
MOT, 657, 16, -121, 0
ATT, 0.00, 8.64, 0.00, -1.44, 0.00, 34.87, 0.00
DFLT, 1, 0.121495
DFLT, 3, 0.000000
DFLT, 4, 0.000000
DFLT, 5, 0.000000
DFLT, 6, 0.000000
D16, 2, 1
MOT, 570, 77, -119, 0
ATT, 0.00, 8.58, 0.00, -1.39, 0.00, 35.02, 0.00
DFLT, 1, 0.119348
DFLT, 3, 0.000000
DFLT, 4, 0.000000
DFLT, 5, 0.000000
DFLT, 6, 0.000000
D16, 2, 1
MOT, 462, 101, -117, 0
ATT, 0.00, 8.59, 0.00, -1.33, 0.00, 35.16, 0.00
DFLT, 1, 0.117917
DFLT, 3, 0.000000
DFLT, 4, 0.000000
DFLT, 5, 0.000000
DFLT, 6, 0.000000
D16, 2, 1
MOT, 368, 124, -117, 0
ATT, 0.00, 8.62, 0.00, -1.30, 0.00, 35.29, 0.00
DFLT, 1, 0.117917
DFLT, 3, 0.000000
DFLT, 4, 0.000000
DFLT, 5, 0.000000
DFLT, 6, 0.000000
D16, 2, 1
MOT, 260, 154, -111, 0
ATT, 0.00, 8.71, 0.00, -1.32, 0.00, 35.42, 0.00
DFLT, 1, 0.111119
DFLT, 3, 0.000000
DFLT, 4, 0.000000
DFLT, 5, 0.000000
DFLT, 6, 0.000000
D16, 2, 1
MOT, 162, 191, -101, 0
ATT, 0.00, 8.85, 0.00, -1.34, 0.00, 35.54, 0.00
DFLT, 1, 0.100607
DFLT, 3, 0.000000
DFLT, 4, 0.000000
DFLT, 5, 0.000000
DFLT, 6, 0.000000
D16, 2, 1
MOT, 48, 202, -108, 0
ATT, 0.00, 8.99, 0.00, -1.38, 0.00, 35.66, 0.00
DFLT, 1, 0.108256
DFLT, 3, 0.000000
DFLT, 4, 0.000000
DFLT, 5, 0.000000
DFLT, 6, 0.000000
D16, 2, 1
MOT, -40, 230, -109, 0
ATT, 0.00, 9.19, 0.00, -1.44, 0.00, 35.78, 0.00
DFLT, 1, 0.108973
DFLT, 3, 0.000000
DFLT, 4, 0.000000
DFLT, 5, 0.000000
DFLT, 6, 0.000000
D16, 2, 1
MOT, -101, 289, -111, 0
ATT, 0.00, 9.42, 0.00, -1.50, 0.00, 35.90, 0.00
DFLT, 1, 0.110761
DFLT, 3, 0.000000
DFLT, 4, 0.000000
DFLT, 5, 0.000000
DFLT, 6, 0.000000
D16, 2, 1
MOT, -150, 303, -110, 0
ATT, 0.00, 9.67, 0.00, -1.56, 0.00, 36.02, 0.00
DFLT, 1, 0.109466
DFLT, 3, 0.000000
DFLT, 4, 0.000000
DFLT, 5, 0.000000
DFLT, 6, 0.000000
D16, 2, 1
MOT, -171, 341, -117, 0
ATT, 0.00, 9.90, 0.00, -1.61, 0.00, 36.14, 0.00
DFLT, 1, 0.115770
DFLT, 3, 0.000000
DFLT, 4, 0.000000
DFLT, 5, 0.000000
DFLT, 6, 0.000000
D16, 2, 1
MOT, -171, 388, -119, 0
ATT, 0.00, 10.13, 0.00, -1.70, 0.00, 36.26, 0.00
DFLT, 1, 0.118275
DFLT, 3, 0.000000
DFLT, 4, 0.000000
DFLT, 5, 0.000000
DFLT, 6, 0.000000
D16, 2, 1
MOT, -130, 394, -117, 0
ATT, 0.00, 10.33, 0.00, -1.78, 0.00, 36.37, 0.00
DFLT, 1, 0.115412
DFLT, 3, 0.000000
DFLT, 4, 0.000000
DFLT, 5, 0.000000
DFLT, 6, 0.000000
D16, 2, 1
MOT, -146, 397, -120, 0
ATT, 0.00, 10.51, 0.00, -1.88, 0.00, 36.50, 0.00
DFLT, 1, 0.118326
DFLT, 3, 0.000000
DFLT, 4, 0.000000
DFLT, 5, 0.000000
DFLT, 6, 0.000000
D16, 2, 1
MOT, -97, 386, -125, 0
ATT, 0.00, 10.63, 0.00, -1.99, 0.00, 36.62, 0.00
DFLT, 1, 0.123284
DFLT, 3, 0.000000
DFLT, 4, 0.000000
DFLT, 5, 0.000000
DFLT, 6, 0.000000
D16, 2, 1
MOT, 10, 397, -122, 0
ATT, 0.00, 10.69, 0.00, -2.08, 0.00, 36.75, 0.00
DFLT, 1, 0.119706
DFLT, 3, 0.000000
DFLT, 4, 0.000000
DFLT, 5, 0.000000
DFLT, 6, 0.000000
D16, 2, 1
MOT, 85, 402, -122, 0
ATT, 0.00, 10.70, 0.00, -2.15, 0.00, 36.87, 0.00
DFLT, 1, 0.118990
DFLT, 3, 0.000000
DFLT, 4, 0.000000
DFLT, 5, 0.000000
DFLT, 6, 0.000000
D16, 2, 1
MOT, 112, 380, -128, 0
ATT, 0.00, 10.69, 0.00, -2.23, 0.00, 37.01, 0.00
DFLT, 1, 0.125482
DFLT, 3, 0.000000
DFLT, 4, 0.000000
DFLT, 5, 0.000000
DFLT, 6, 0.000000
D16, 2, 1
MOT, 212, 393, -131, 0
ATT, 0.00, 10.63, 0.00, -2.28, 0.00, 37.15, 0.00
DFLT, 1, 0.127578
DFLT, 3, 0.000000
DFLT, 4, 0.000000
DFLT, 5, 0.000000
DFLT, 6, 0.000000
D16, 2, 1
MOT, 268, 410, -131, 0
ATT, 0.00, 10.56, 0.00, -2.34, 0.00, 37.28, 0.00
DFLT, 1, 0.127578
DFLT, 3, 0.000000
DFLT, 4, 0.000000
DFLT, 5, 0.000000
DFLT, 6, 0.000000
D16, 2, 1
MOT, 294, 409, -132, 0
ATT, 0.00, 10.48, 0.00, -2.39, 0.00, 37.42, 0.00
DFLT, 1, 0.128651
DFLT, 3, 0.000000
DFLT, 4, 0.000000
DFLT, 5, 0.000000
DFLT, 6, 0.000000
D16, 2, 1
MOT, 326, 415, -140, 0
ATT, 0.00, 10.39, 0.00, -2.44, 0.00, 37.57, 0.00
DFLT, 1, 0.137067
DFLT, 3, 0.000000
DFLT, 4, 0.000000
DFLT, 5, 0.000000
DFLT, 6, 0.000000
D16, 2, 1
MOT, 328, 405, -140, 0
ATT, 0.00, 10.31, 0.00, -2.48, 0.00, 37.72, 0.00
DFLT, 1, 0.136522
DFLT, 3, 0.000000
DFLT, 4, 0.000000
DFLT, 5, 0.000000
DFLT, 6, 0.000000
D16, 2, 1
MOT, 321, 390, -134, 0
ATT, 0.00, 10.24, 0.00, -2.54, 0.00, 37.86, 0.00
DFLT, 1, 0.130082
DFLT, 3, 0.000000
DFLT, 4, 0.000000
DFLT, 5, 0.000000
DFLT, 6, 0.000000
D16, 2, 1
MOT, 349, 385, -129, 0
ATT, 0.00, 10.15, 0.00, -2.58, 0.00, 38.00, 0.00
DFLT, 1, 0.125073
DFLT, 3, 0.000000
DFLT, 4, 0.000000
DFLT, 5, 0.000000
DFLT, 6, 0.000000
D16, 2, 1
MOT, 378, 328, -130, 0
ATT, 0.00, 10.04, 0.00, -2.59, 0.00, 38.15, 0.00
DFLT, 1, 0.126163
DFLT, 3, 0.000000
DFLT, 4, 0.000000
DFLT, 5, 0.000000
DFLT, 6, 0.000000
D16, 2, 1
MOT, 436, 256, -122, 0
ATT, 0.00, 9.91, 0.00, -2.57, 0.00, 38.29, 0.00
DFLT, 1, 0.117559
DFLT, 3, 0.000000
DFLT, 4, 0.000000
DFLT, 5, 0.000000
DFLT, 6, 0.000000
D16, 2, 1
MOT, 457, 205, -114, 0
ATT, 0.00, 9.80, 0.00, -2.52, 0.00, 38.43, 0.00
DFLT, 1, 0.110045
DFLT, 3, 0.000000
DFLT, 4, 0.000000
DFLT, 5, 0.000000
DFLT, 6, 0.000000
D16, 2, 1
MOT, 456, 150, -116, 0
ATT, 0.00, 9.68, 0.00, -2.43, 0.00, 38.57, 0.00
DFLT, 1, 0.112192
DFLT, 3, 0.000000
DFLT, 4, 0.000000
DFLT, 5, 0.000000
DFLT, 6, 0.000000
D16, 2, 1
MOT, 456, 51, -125, 0
ATT, 0.00, 9.56, 0.00, -2.29, 0.00, 38.75, 0.00
DFLT, 1, 0.122074
DFLT, 3, 0.000000
DFLT, 4, 0.000000
DFLT, 5, 0.000000
DFLT, 6, 0.000000
D16, 2, 1
MOT, 490, 14, -117, 0
ATT, 0.00, 9.46, 0.00, -2.16, 0.00, 38.90, 0.00
DFLT, 1, 0.114697
DFLT, 3, 0.000000
DFLT, 4, 0.000000
DFLT, 5, 0.000000
DFLT, 6, 0.000000
D16, 2, 1
MOT, 479, -6, -116, 0
ATT, 0.00, 9.39, 0.00, -2.01, 0.00, 39.06, 0.00
DFLT, 1, 0.113623
DFLT, 3, 0.000000
DFLT, 4, 0.000000
DFLT, 5, 0.000000
DFLT, 6, 0.000000
D16, 2, 1
MOT, 437, -62, -119, 0
ATT, 0.00, 9.34, 0.00, -1.83, 0.00, 39.22, 0.00
DFLT, 1, 0.117917
DFLT, 3, 0.000000
DFLT, 4, 0.000000
DFLT, 5, 0.000000
DFLT, 6, 0.000000
D16, 2, 1
MOT, 453, -66, -122, 0
ATT, 0.00, 9.27, 0.00, -1.66, 0.00, 39.39, 0.00
DFLT, 1, 0.121734
DFLT, 3, 0.000000
DFLT, 4, 0.000000
DFLT, 5, 0.000000
DFLT, 6, 0.000000
D16, 2, 1
MOT, 417, -97, -111, 0
ATT, 0.00, 9.25, 0.00, -1.51, 0.00, 39.54, 0.00
DFLT, 1, 0.110761
DFLT, 3, 0.000000
DFLT, 4, 0.000000
DFLT, 5, 0.000000
DFLT, 6, 0.000000
D16, 2, 1
MOT, 367, -87, -104, 0
ATT, 0.00, 9.23, 0.00, -1.37, 0.00, 39.68, 0.00
DFLT, 1, 0.103606
DFLT, 3, 0.000000
DFLT, 4, 0.000000
DFLT, 5, 0.000000
DFLT, 6, 0.000000
D16, 2, 1
MOT, 330, -104, -109, 0
ATT, 0.00, 9.21, 0.00, -1.23, 0.00, 39.83, 0.00
DFLT, 1, 0.109688
DFLT, 3, 0.000000
DFLT, 4, 0.000000
DFLT, 5, 0.000000
DFLT, 6, 0.000000
D16, 2, 1
MOT, 329, -101, -106, 0
ATT, 0.00, 9.20, 0.00, -1.12, 0.00, 39.98, 0.00
DFLT, 1, 0.106399
DFLT, 3, 0.000000
DFLT, 4, 0.000000
DFLT, 5, 0.000000
DFLT, 6, 0.000000
D16, 2, 1
MOT, 271, -36, -109, 0
ATT, 0.00, 9.24, 0.00, -1.05, 0.00, 40.12, 0.00
DFLT, 1, 0.110403
DFLT, 3, 0.000000
DFLT, 4, 0.000000
DFLT, 5, 0.000000
DFLT, 6, 0.000000
D16, 2, 1
MOT, 255, -19, -112, 0
ATT, 0.00, 9.28, 0.00, -0.98, 0.00, 40.27, 0.00
DFLT, 1, 0.113981
DFLT, 3, 0.000000
DFLT, 4, 0.000000
DFLT, 5, 0.000000
DFLT, 6, 0.000000
D16, 2, 1
MOT, 250, 24, -111, 0
ATT, 0.00, 9.31, 0.00, -0.93, 0.00, 40.40, 0.00
DFLT, 1, 0.112908
DFLT, 3, 0.000000
DFLT, 4, 0.000000
DFLT, 5, 0.000000
DFLT, 6, 0.000000
D16, 2, 1
MOT, 244, 127, -114, 0
ATT, 0.00, 9.37, 0.00, -0.93, 0.00, 40.54, 0.00
DFLT, 1, 0.115941
DFLT, 3, 0.000000
DFLT, 4, 0.000000
DFLT, 5, 0.000000
DFLT, 6, 0.000000
D16, 2, 1
MOT, 213, 176, -117, 0
ATT, 0.00, 9.44, 0.00, -0.94, 0.00, 40.67, 0.00
DFLT, 1, 0.118633
DFLT, 3, 0.000000
DFLT, 4, 0.000000
DFLT, 5, 0.000000
DFLT, 6, 0.000000
D16, 2, 1
MOT, 186, 227, -120, 0
ATT, 0.00, 9.50, 0.00, -1.00, 0.00, 40.80, 0.00
DFLT, 1, 0.121495
DFLT, 3, 0.000000
DFLT, 4, 0.000000
DFLT, 5, 0.000000
DFLT, 6, 0.000000
D16, 2, 1
MOT, 155, 286, -124, 0
ATT, 0.00, 9.57, 0.00, -1.11, 0.00, 40.93, 0.00
DFLT, 1, 0.125430
DFLT, 3, 0.000000
DFLT, 4, 0.000000
DFLT, 5, 0.000000
DFLT, 6, 0.000000
D16, 2, 1
MOT, 185, 359, -120, 0
ATT, 0.00, 9.64, 0.00, -1.25, 0.00, 41.05, 0.00
DFLT, 1, 0.120370
DFLT, 3, 0.000000
DFLT, 4, 0.000000
DFLT, 5, 0.000000
DFLT, 6, 0.000000
D16, 2, 1
MOT, 181, 408, -126, 0
ATT, 0.00, 9.68, 0.00, -1.40, 0.00, 41.17, 0.00
DFLT, 1, 0.126862
DFLT, 3, 0.000000
DFLT, 4, 0.000000
DFLT, 5, 0.000000
DFLT, 6, 0.000000
D16, 2, 1
MOT, 163, 439, -132, 0
ATT, 0.00, 9.71, 0.00, -1.56, 0.00, 41.30, 0.00
DFLT, 1, 0.131871
DFLT, 3, 0.000000
DFLT, 4, 0.000000
DFLT, 5, 0.000000
DFLT, 6, 0.000000
D16, 2, 1
MOT, 199, 489, -132, 0
ATT, 0.00, 9.74, 0.00, -1.71, 0.00, 41.42, 0.00
DFLT, 1, 0.131871
DFLT, 3, 0.000000
DFLT, 4, 0.000000
DFLT, 5, 0.000000
DFLT, 6, 0.000000
D16, 2, 1
MOT, 223, 511, -130, 0
ATT, 0.00, 9.76, 0.00, -1.86, 0.00, 41.55, 0.00
DFLT, 1, 0.129230
DFLT, 3, 0.000000
DFLT, 4, 0.000000
DFLT, 5, 0.000000
DFLT, 6, 0.000000
D16, 2, 1
MOT, 216, 518, -136, 0
ATT, 0.00, 9.77, 0.00, -1.99, 0.00, 41.68, 0.00
DFLT, 1, 0.135091
DFLT, 3, 0.000000
DFLT, 4, 0.000000
DFLT, 5, 0.000000
DFLT, 6, 0.000000
D16, 2, 1
MOT, 253, 537, -140, 0
ATT, 0.00, 9.77, 0.00, -2.14, 0.00, 41.81, 0.00
DFLT, 1, 0.137953
DFLT, 3, 0.000000
DFLT, 4, 0.000000
DFLT, 5, 0.000000
DFLT, 6, 0.000000
D16, 2, 1
MOT, 313, 549, -131, 0
ATT, 0.00, 9.76, 0.00, -2.27, 0.00, 41.93, 0.00
DFLT, 1, 0.128651
DFLT, 3, 0.000000
DFLT, 4, 0.000000
DFLT, 5, 0.000000
DFLT, 6, 0.000000
D16, 2, 1
MOT, 319, 531, -134, 0
ATT, 0.00, 9.75, 0.00, -2.40, 0.00, 42.07, 0.00
DFLT, 1, 0.130593
DFLT, 3, 0.000000
DFLT, 4, 0.000000
DFLT, 5, 0.000000
DFLT, 6, 0.000000
D16, 2, 1
MOT, 335, 490, -134, 0
ATT, 0.00, 9.71, 0.00, -2.50, 0.00, 42.20, 0.00
DFLT, 1, 0.131155
DFLT, 3, 0.000000
DFLT, 4, 0.000000
DFLT, 5, 0.000000
DFLT, 6, 0.000000
D16, 2, 1
MOT, 407, 447, -128, 0
ATT, 0.00, 9.64, 0.00, -2.57, 0.00, 42.33, 0.00
DFLT, 1, 0.124000
DFLT, 3, 0.000000
DFLT, 4, 0.000000
DFLT, 5, 0.000000
DFLT, 6, 0.000000
D16, 2, 1
MOT, 449, 397, -120, 0
ATT, 0.00, 9.54, 0.00, -2.62, 0.00, 42.46, 0.00
DFLT, 1, 0.116128
DFLT, 3, 0.000000
DFLT, 4, 0.000000
DFLT, 5, 0.000000
DFLT, 6, 0.000000
D16, 2, 1
MOT, 400, 303, -125, 0
ATT, 0.00, 9.44, 0.00, -2.61, 0.00, 42.61, 0.00
DFLT, 1, 0.121393
DFLT, 3, 0.000000
DFLT, 4, 0.000000
DFLT, 5, 0.000000
DFLT, 6, 0.000000
D16, 2, 1
MOT, 446, 238, -126, 0
ATT, 0.00, 9.34, 0.00, -2.57, 0.00, 42.76, 0.00
DFLT, 1, 0.122568
DFLT, 3, 0.000000
DFLT, 4, 0.000000
DFLT, 5, 0.000000
DFLT, 6, 0.000000
D16, 2, 1
MOT, 431, 204, -122, 0
ATT, 0.00, 9.28, 0.00, -2.50, 0.00, 42.91, 0.00
DFLT, 1, 0.118275
DFLT, 3, 0.000000
DFLT, 4, 0.000000
DFLT, 5, 0.000000
DFLT, 6, 0.000000
D16, 2, 1
MOT, 384, 142, -121, 0
ATT, 0.00, 9.25, 0.00, -2.39, 0.00, 43.06, 0.00
DFLT, 1, 0.118275
DFLT, 3, 0.000000
DFLT, 4, 0.000000
DFLT, 5, 0.000000
DFLT, 6, 0.000000
D16, 2, 1
MOT, 325, 97, -125, 0
ATT, 0.00, 9.25, 0.00, -2.26, 0.00, 43.22, 0.00
DFLT, 1, 0.122415
DFLT, 3, 0.000000
DFLT, 4, 0.000000
DFLT, 5, 0.000000
DFLT, 6, 0.000000
D16, 2, 1
MOT, 279, 81, -124, 0
ATT, 0.00, 9.29, 0.00, -2.13, 0.00, 43.38, 0.00
DFLT, 1, 0.121495
DFLT, 3, 0.000000
DFLT, 4, 0.000000
DFLT, 5, 0.000000
DFLT, 6, 0.000000
D16, 2, 1
MOT, 224, 54, -119, 0
ATT, 0.00, 9.35, 0.00, -2.00, 0.00, 43.53, 0.00
DFLT, 1, 0.117559
DFLT, 3, 0.000000
DFLT, 4, 0.000000
DFLT, 5, 0.000000
DFLT, 6, 0.000000
D16, 2, 1
MOT, 129, 40, -121, 0
ATT, 0.00, 9.43, 0.00, -1.89, 0.00, 43.69, 0.00
DFLT, 1, 0.120064
DFLT, 3, 0.000000
DFLT, 4, 0.000000
DFLT, 5, 0.000000
DFLT, 6, 0.000000
D16, 2, 1
MOT, 87, 29, -129, 0
ATT, 0.00, 9.53, 0.00, -1.79, 0.00, 43.86, 0.00
DFLT, 1, 0.127867
DFLT, 3, 0.000000
DFLT, 4, 0.000000
DFLT, 5, 0.000000
DFLT, 6, 0.000000
D16, 2, 1
MOT, 60, 69, -120, 0
ATT, 0.00, 9.65, 0.00, -1.72, 0.00, 44.01, 0.00
DFLT, 1, 0.119348
DFLT, 3, 0.000000
DFLT, 4, 0.000000
DFLT, 5, 0.000000
DFLT, 6, 0.000000
D16, 2, 1
MOT, 14, 99, -122, 0
ATT, 0.00, 9.78, 0.00, -1.66, 0.00, 44.16, 0.00
DFLT, 1, 0.121495
DFLT, 3, 0.000000
DFLT, 4, 0.000000
DFLT, 5, 0.000000
DFLT, 6, 0.000000
D16, 2, 1
MOT, -14, 160, -131, 0
ATT, 0.00, 9.91, 0.00, -1.64, 0.00, 44.32, 0.00
DFLT, 1, 0.131155
DFLT, 3, 0.000000
DFLT, 4, 0.000000
DFLT, 5, 0.000000
DFLT, 6, 0.000000
D16, 2, 1
MOT, 18, 207, -137, 0
ATT, 0.00, 10.03, 0.00, -1.65, 0.00, 44.48, 0.00
DFLT, 1, 0.137067
DFLT, 3, 0.000000
DFLT, 4, 0.000000
DFLT, 5, 0.000000
DFLT, 6, 0.000000
D16, 2, 1
MOT, 9, 280, -134, 0
ATT, 0.00, 10.14, 0.00, -1.68, 0.00, 44.62, 0.00
DFLT, 1, 0.133302
DFLT, 3, 0.000000
DFLT, 4, 0.000000
DFLT, 5, 0.000000
DFLT, 6, 0.000000
D16, 2, 1
MOT, 46, 343, -145, 0
ATT, 0.00, 10.23, 0.00, -1.74, 0.00, 44.78, 0.00
DFLT, 1, 0.144752
DFLT, 3, 0.000000
DFLT, 4, 0.000000
DFLT, 5, 0.000000
DFLT, 6, 0.000000
D16, 2, 1
MOT, 114, 408, -151, 0
ATT, 0.00, 10.28, 0.00, -1.82, 0.00, 44.93, 0.00
DFLT, 1, 0.151191
DFLT, 3, 0.000000
DFLT, 4, 0.000000
DFLT, 5, 0.000000
DFLT, 6, 0.000000
D16, 2, 1
MOT, 172, 449, -154, 0
ATT, 0.00, 10.31, 0.00, -1.94, 0.00, 45.09, 0.00
DFLT, 1, 0.153082
DFLT, 3, 0.000000
DFLT, 4, 0.000000
DFLT, 5, 0.000000
DFLT, 6, 0.000000
D16, 2, 1
MOT, 195, 462, -155, 0
ATT, 0.00, 10.33, 0.00, -2.06, 0.00, 45.25, 0.00
DFLT, 1, 0.154412
DFLT, 3, 0.000000
DFLT, 4, 0.000000
DFLT, 5, 0.000000
DFLT, 6, 0.000000
D16, 2, 1
MOT, 272, 478, -160, 0
ATT, 0.00, 10.27, 0.00, -2.18, 0.00, 45.41, 0.00
DFLT, 1, 0.158347
DFLT, 3, 0.000000
DFLT, 4, 0.000000
DFLT, 5, 0.000000
DFLT, 6, 0.000000
D16, 2, 1
MOT, 375, 457, -159, 0
ATT, 0.00, 10.17, 0.00, -2.30, 0.00, 45.57, 0.00
DFLT, 1, 0.156916
DFLT, 3, 0.000000
DFLT, 4, 0.000000
DFLT, 5, 0.000000
DFLT, 6, 0.000000
D16, 2, 1
MOT, 401, 446, -155, 0
ATT, 0.00, 10.04, 0.00, -2.39, 0.00, 45.74, 0.00
DFLT, 1, 0.153082
DFLT, 3, 0.000000
DFLT, 4, 0.000000
DFLT, 5, 0.000000
DFLT, 6, 0.000000
D16, 2, 1
MOT, 461, 432, -164, 0
ATT, 0.00, 9.88, 0.00, -2.48, 0.00, 45.91, 0.00
DFLT, 1, 0.161568
DFLT, 3, 0.000000
DFLT, 4, 0.000000
DFLT, 5, 0.000000
DFLT, 6, 0.000000
D16, 2, 1
MOT, 530, 398, -168, 0
ATT, 0.00, 9.71, 0.00, -2.52, 0.00, 46.09, 0.00
DFLT, 1, 0.166577
DFLT, 3, 0.000000
DFLT, 4, 0.000000
DFLT, 5, 0.000000
DFLT, 6, 0.000000
D16, 2, 1
MOT, 598, 381, -170, 0
ATT, 0.00, 9.53, 0.00, -2.55, 0.00, 46.28, 0.00
DFLT, 1, 0.167650
DFLT, 3, 0.000000
DFLT, 4, 0.000000
DFLT, 5, 0.000000
DFLT, 6, 0.000000
D16, 2, 1
MOT, 596, 355, -169, 0
ATT, 0.00, 9.37, 0.00, -2.56, 0.00, 46.48, 0.00
DFLT, 1, 0.167054
DFLT, 3, 0.000000
DFLT, 4, 0.000000
DFLT, 5, 0.000000
DFLT, 6, 0.000000
D16, 2, 1
MOT, 614, 319, -174, 0
ATT, 0.00, 9.23, 0.00, -2.53, 0.00, 46.67, 0.00
DFLT, 1, 0.172302
DFLT, 3, 0.000000
DFLT, 4, 0.000000
DFLT, 5, 0.000000
DFLT, 6, 0.000000
D16, 2, 1
MOT, 623, 288, -175, 0
ATT, 0.00, 9.09, 0.00, -2.50, 0.00, 46.87, 0.00
DFLT, 1, 0.173375
DFLT, 3, 0.000000
DFLT, 4, 0.000000
DFLT, 5, 0.000000
DFLT, 6, 0.000000
D16, 2, 1
MOT, 576, 228, -170, 0
ATT, 0.00, 8.98, 0.00, -2.47, 0.00, 47.07, 0.00
DFLT, 1, 0.168366
DFLT, 3, 0.000000
DFLT, 4, 0.000000
DFLT, 5, 0.000000
DFLT, 6, 0.000000
D16, 2, 1
MOT, 497, 205, -165, 0
ATT, 0.00, 8.91, 0.00, -2.42, 0.00, 47.28, 0.00
DFLT, 1, 0.163646
DFLT, 3, 0.000000
DFLT, 4, 0.000000
DFLT, 5, 0.000000
DFLT, 6, 0.000000
D16, 2, 1
MOT, 438, 147, -167, 0
ATT, 0.00, 8.86, 0.00, -2.36, 0.00, 47.48, 0.00
DFLT, 1, 0.166219
DFLT, 3, 0.000000
DFLT, 4, 0.000000
DFLT, 5, 0.000000
DFLT, 6, 0.000000
D16, 2, 1
MOT, 381, 85, -162, 0
ATT, 0.00, 8.85, 0.00, -2.27, 0.00, 47.68, 0.00
DFLT, 1, 0.161210
DFLT, 3, 0.000000
DFLT, 4, 0.000000
DFLT, 5, 0.000000
DFLT, 6, 0.000000
D16, 2, 1
MOT, 285, 59, -159, 0
ATT, 0.00, 8.90, 0.00, -2.17, 0.00, 47.88, 0.00
DFLT, 1, 0.157990
DFLT, 3, 0.000000
DFLT, 4, 0.000000
DFLT, 5, 0.000000
DFLT, 6, 0.000000
D16, 2, 1
MOT, 185, 21, -161, 0
ATT, 0.00, 9.00, 0.00, -2.04, 0.00, 48.10, 0.00
DFLT, 1, 0.160580
DFLT, 3, 0.000000
DFLT, 4, 0.000000
DFLT, 5, 0.000000
DFLT, 6, 0.000000
D16, 2, 1
MOT, 126, -13, -163, 0
ATT, 0.00, 9.13, 0.00, -1.89, 0.00, 48.31, 0.00
DFLT, 1, 0.162999
DFLT, 3, 0.000000
DFLT, 4, 0.000000
DFLT, 5, 0.000000
DFLT, 6, 0.000000
D16, 2, 1
MOT, 60, -52, -163, 0
ATT, 0.00, 9.27, 0.00, -1.75, 0.00, 48.52, 0.00
DFLT, 1, 0.163357
DFLT, 3, 0.000000
DFLT, 4, 0.000000
DFLT, 5, 0.000000
DFLT, 6, 0.000000
D16, 2, 1
MOT, -1, -65, -160, 0
ATT, 0.00, 9.45, 0.00, -1.60, 0.00, 48.73, 0.00
DFLT, 1, 0.161210
DFLT, 3, 0.000000
DFLT, 4, 0.000000
DFLT, 5, 0.000000
DFLT, 6, 0.000000
D16, 2, 1
MOT, -73, -71, -174, 0
ATT, 0.00, 9.64, 0.00, -1.46, 0.00, 48.96, 0.00
DFLT, 1, 0.175914
DFLT, 3, 0.000000
DFLT, 4, 0.000000
DFLT, 5, 0.000000
DFLT, 6, 0.000000
D16, 2, 1
MOT, -58, -77, -174, 0
ATT, 0.00, 9.83, 0.00, -1.34, 0.00, 49.18, 0.00
DFLT, 1, 0.176595
DFLT, 3, 0.000000
DFLT, 4, 0.000000
DFLT, 5, 0.000000
DFLT, 6, 0.000000
D16, 2, 1
MOT, -79, -51, -170, 0
ATT, 0.00, 10.01, 0.00, -1.25, 0.00, 49.40, 0.00
DFLT, 1, 0.172302
DFLT, 3, 0.000000
DFLT, 4, 0.000000
DFLT, 5, 0.000000
DFLT, 6, 0.000000
D16, 2, 1
MOT, -50, -16, -173, 0
ATT, 0.00, 10.16, 0.00, -1.18, 0.00, 49.61, 0.00
DFLT, 1, 0.176237
DFLT, 3, 0.000000
DFLT, 4, 0.000000
DFLT, 5, 0.000000
DFLT, 6, 0.000000
D16, 2, 1
MOT, 34, -11, -176, 0
ATT, 0.00, 10.25, 0.00, -1.12, 0.00, 49.84, 0.00
DFLT, 1, 0.178981
DFLT, 3, 0.000000
DFLT, 4, 0.000000
DFLT, 5, 0.000000
DFLT, 6, 0.000000
D16, 2, 1
MOT, 96, 31, -183, 0
ATT, 0.00, 10.30, 0.00, -1.11, 0.00, 50.06, 0.00
DFLT, 1, 0.186255
DFLT, 3, 0.000000
DFLT, 4, 0.000000
DFLT, 5, 0.000000
DFLT, 6, 0.000000
D16, 2, 1
MOT, 170, 89, -191, 0
ATT, 0.00, 10.31, 0.00, -1.11, 0.00, 50.29, 0.00
DFLT, 1, 0.195558
DFLT, 3, 0.000000
DFLT, 4, 0.000000
DFLT, 5, 0.000000
DFLT, 6, 0.000000
D16, 2, 1
MOT, 282, 139, -203, 0
ATT, 0.00, 10.27, 0.00, -1.13, 0.00, 50.52, 0.00
DFLT, 1, 0.207723
DFLT, 3, 0.000000
DFLT, 4, 0.000000
DFLT, 5, 0.000000
DFLT, 6, 0.000000
D16, 2, 1
MOT, 389, 195, -211, 0
ATT, 0.00, 10.16, 0.00, -1.17, 0.00, 50.77, 0.00
DFLT, 1, 0.215441
DFLT, 3, 0.000000
DFLT, 4, 0.000000
DFLT, 5, 0.000000
DFLT, 6, 0.000000
D16, 2, 1
MOT, 435, 273, -217, 0
ATT, 0.00, 10.06, 0.00, -1.25, 0.00, 51.01, 0.00
DFLT, 1, 0.221677
DFLT, 3, 0.000000
DFLT, 4, 0.000000
DFLT, 5, 0.000000
DFLT, 6, 0.000000
D16, 2, 1
MOT, 542, 322, -221, 0
ATT, 0.00, 9.91, 0.00, -1.33, 0.00, 51.25, 0.00
DFLT, 1, 0.225255
DFLT, 3, 0.000000
DFLT, 4, 0.000000
DFLT, 5, 0.000000
DFLT, 6, 0.000000
D16, 2, 1
MOT, 626, 354, -224, 0
ATT, 0.00, 9.73, 0.00, -1.45, 0.00, 51.49, 0.00
DFLT, 1, 0.228117
DFLT, 3, 0.000000
DFLT, 4, 0.000000
DFLT, 5, 0.000000
DFLT, 6, 0.000000
D16, 2, 1
MOT, 643, 407, -229, 0
ATT, 0.00, 9.53, 0.00, -1.59, 0.00, 51.75, 0.00
DFLT, 1, 0.232820
DFLT, 3, 0.000000
DFLT, 4, 0.000000
DFLT, 5, 0.000000
DFLT, 6, 0.000000
D16, 2, 1
MOT, 704, 429, -224, 0
ATT, 0.00, 9.31, 0.00, -1.74, 0.00, 51.98, 0.00
DFLT, 1, 0.227401
DFLT, 3, 0.000000
DFLT, 4, 0.000000
DFLT, 5, 0.000000
DFLT, 6, 0.000000
D16, 2, 1
MOT, 759, 453, -225, 0
ATT, 0.00, 9.08, 0.00, -1.89, 0.00, 52.22, 0.00
DFLT, 1, 0.227401
DFLT, 3, 0.000000
DFLT, 4, 0.000000
DFLT, 5, 0.000000
DFLT, 6, 0.000000
D16, 2, 1
MOT, 754, 449, -230, 0
ATT, 0.00, 8.86, 0.00, -2.05, 0.00, 52.47, 0.00
DFLT, 1, 0.232411
DFLT, 3, 0.000000
DFLT, 4, 0.000000
DFLT, 5, 0.000000
DFLT, 6, 0.000000
D16, 2, 1
MOT, 725, 445, -235, 0
ATT, 0.00, 8.66, 0.00, -2.19, 0.00, 52.74, 0.00
DFLT, 1, 0.236909
DFLT, 3, 0.000000
DFLT, 4, 0.000000
DFLT, 5, 0.000000
DFLT, 6, 0.000000
D16, 2, 1
MOT, 726, 447, -232, 0
ATT, 0.00, 8.50, 0.00, -2.28, 0.00, 52.99, 0.00
DFLT, 1, 0.233842
DFLT, 3, 0.000000
DFLT, 4, 0.000000
DFLT, 5, 0.000000
DFLT, 6, 0.000000
D16, 2, 1
MOT, 691, 430, -228, 0
ATT, 0.00, 8.38, 0.00, -2.36, 0.00, 53.24, 0.00
DFLT, 1, 0.229548
DFLT, 3, 0.000000
DFLT, 4, 0.000000
DFLT, 5, 0.000000
DFLT, 6, 0.000000
D16, 2, 1
MOT, 592, 418, -227, 0
ATT, 0.00, 8.32, 0.00, -2.42, 0.00, 53.49, 0.00
DFLT, 1, 0.228833
DFLT, 3, 0.000000
DFLT, 4, 0.000000
DFLT, 5, 0.000000
DFLT, 6, 0.000000
D16, 2, 1
MOT, 470, 375, -229, 0
ATT, 0.00, 8.32, 0.00, -2.45, 0.00, 53.76, 0.00
DFLT, 1, 0.230434
DFLT, 3, 0.000000
DFLT, 4, 0.000000
DFLT, 5, 0.000000
DFLT, 6, 0.000000
D16, 2, 1
MOT, 391, 342, -225, 0
ATT, 0.00, 8.37, 0.00, -2.46, 0.00, 54.01, 0.00
DFLT, 1, 0.225970
DFLT, 3, 0.000000
DFLT, 4, 0.000000
DFLT, 5, 0.000000
DFLT, 6, 0.000000
D16, 2, 1
MOT, 292, 284, -225, 0
ATT, 0.00, 8.46, 0.00, -2.46, 0.00, 54.27, 0.00
DFLT, 1, 0.225612
DFLT, 3, 0.000000
DFLT, 4, 0.000000
DFLT, 5, 0.000000
DFLT, 6, 0.000000
D16, 2, 1
MOT, 140, 221, -224, 0
ATT, 0.00, 8.61, 0.00, -2.44, 0.00, 54.53, 0.00
DFLT, 1, 0.225612
DFLT, 3, 0.000000
DFLT, 4, 0.000000
DFLT, 5, 0.000000
DFLT, 6, 0.000000
D16, 2, 1
MOT, 59, 182, -216, 0
ATT, 0.00, 8.82, 0.00, -2.40, 0.00, 54.80, 0.00
DFLT, 1, 0.216804
DFLT, 3, 0.000000
DFLT, 4, 0.000000
DFLT, 5, 0.000000
DFLT, 6, 0.000000
D16, 2, 1
MOT, 11, 136, -214, 0
ATT, 0.00, 9.01, 0.00, -2.33, 0.00, 55.06, 0.00
DFLT, 1, 0.214521
DFLT, 3, 0.000000
DFLT, 4, 0.000000
DFLT, 5, 0.000000
DFLT, 6, 0.000000
D16, 2, 1
MOT, -21, 82, -213, 0
ATT, 0.00, 9.20, 0.00, -2.25, 0.00, 55.32, 0.00
DFLT, 1, 0.214521
DFLT, 3, 0.000000
DFLT, 4, 0.000000
DFLT, 5, 0.000000
DFLT, 6, 0.000000
D16, 2, 1
MOT, -60, 75, -208, 0
ATT, 0.00, 9.40, 0.00, -2.16, 0.00, 55.58, 0.00
DFLT, 1, 0.209512
DFLT, 3, 0.000000
DFLT, 4, 0.000000
DFLT, 5, 0.000000
DFLT, 6, 0.000000
D16, 2, 1
MOT, -37, 36, -216, 0
ATT, 0.00, 9.58, 0.00, -2.04, 0.00, 55.86, 0.00
DFLT, 1, 0.218167
DFLT, 3, 0.000000
DFLT, 4, 0.000000
DFLT, 5, 0.000000
DFLT, 6, 0.000000
D16, 2, 1
MOT, 18, 23, -219, 0
ATT, 0.00, 9.73, 0.00, -1.93, 0.00, 56.13, 0.00
DFLT, 1, 0.221319
DFLT, 3, 0.000000
DFLT, 4, 0.000000
DFLT, 5, 0.000000
DFLT, 6, 0.000000
D16, 2, 1
MOT, 42, 40, -219, 0
ATT, 0.00, 9.87, 0.00, -1.84, 0.00, 56.40, 0.00
DFLT, 1, 0.222034
DFLT, 3, 0.000000
DFLT, 4, 0.000000
DFLT, 5, 0.000000
DFLT, 6, 0.000000
D16, 2, 1
MOT, 98, 68, -224, 0
ATT, 0.00, 9.97, 0.00, -1.77, 0.00, 56.68, 0.00
DFLT, 1, 0.227401
DFLT, 3, 0.000000
DFLT, 4, 0.000000
DFLT, 5, 0.000000
DFLT, 6, 0.000000
D16, 2, 1
MOT, 233, 133, -231, 0
ATT, 0.00, 9.99, 0.00, -1.71, 0.00, 56.96, 0.00
DFLT, 1, 0.234864
DFLT, 3, 0.000000
DFLT, 4, 0.000000
DFLT, 5, 0.000000
DFLT, 6, 0.000000
D16, 2, 1
MOT, 286, 128, -233, 0
ATT, 0.00, 9.98, 0.00, -1.69, 0.00, 57.24, 0.00
DFLT, 1, 0.236346
DFLT, 3, 0.000000
DFLT, 4, 0.000000
DFLT, 5, 0.000000
DFLT, 6, 0.000000
D16, 2, 1
MOT, 327, 163, -230, 0
ATT, 0.00, 9.94, 0.00, -1.70, 0.00, 57.51, 0.00
DFLT, 1, 0.233842
DFLT, 3, 0.000000
DFLT, 4, 0.000000
DFLT, 5, 0.000000
DFLT, 6, 0.000000
D16, 2, 1
MOT, 371, 179, -234, 0
ATT, 0.00, 9.87, 0.00, -1.72, 0.00, 57.78, 0.00
DFLT, 1, 0.238135
DFLT, 3, 0.000000
DFLT, 4, 0.000000
DFLT, 5, 0.000000
DFLT, 6, 0.000000
D16, 2, 1
MOT, 479, 170, -236, 0
ATT, 0.00, 9.74, 0.00, -1.74, 0.00, 58.07, 0.00
DFLT, 1, 0.239635
DFLT, 3, 0.000000
DFLT, 4, 0.000000
DFLT, 5, 0.000000
DFLT, 6, 0.000000
D16, 2, 1
MOT, 518, 218, -239, 0
ATT, 0.00, 9.60, 0.00, -1.78, 0.00, 58.34, 0.00
DFLT, 1, 0.243145
DFLT, 3, 0.000000
DFLT, 4, 0.000000
DFLT, 5, 0.000000
DFLT, 6, 0.000000
D16, 2, 1
MOT, 521, 241, -240, 0
ATT, 0.00, 9.48, 0.00, -1.82, 0.00, 58.62, 0.00
DFLT, 1, 0.243860
DFLT, 3, 0.000000
DFLT, 4, 0.000000
DFLT, 5, 0.000000
DFLT, 6, 0.000000
D16, 2, 1
MOT, 544, 265, -241, 0
ATT, 0.00, 9.35, 0.00, -1.85, 0.00, 58.89, 0.00
DFLT, 1, 0.244217
DFLT, 3, 0.000000
DFLT, 4, 0.000000
DFLT, 5, 0.000000
DFLT, 6, 0.000000
D16, 2, 1
MOT, 581, 306, -242, 0
ATT, 0.00, 9.21, 0.00, -1.89, 0.00, 59.18, 0.00
DFLT, 1, 0.245087
DFLT, 3, 0.000000
DFLT, 4, 0.000000
DFLT, 5, 0.000000
DFLT, 6, 0.000000
D16, 2, 1
MOT, 500, 331, -242, 0
ATT, 0.00, 9.11, 0.00, -1.94, 0.00, 59.45, 0.00
DFLT, 1, 0.245649
DFLT, 3, 0.000000
DFLT, 4, 0.000000
DFLT, 5, 0.000000
DFLT, 6, 0.000000
D16, 2, 1
MOT, 458, 382, -243, 0
ATT, 0.00, 9.05, 0.00, -2.02, 0.00, 59.72, 0.00
DFLT, 1, 0.246364
DFLT, 3, 0.000000
DFLT, 4, 0.000000
DFLT, 5, 0.000000
DFLT, 6, 0.000000
D16, 2, 1
MOT, 453, 401, -246, 0
ATT, 0.00, 9.01, 0.00, -2.11, 0.00, 59.99, 0.00
DFLT, 1, 0.248512
DFLT, 3, 0.000000
DFLT, 4, 0.000000
DFLT, 5, 0.000000
DFLT, 6, 0.000000
D16, 2, 1
MOT, 427, 431, -242, 0
ATT, 0.00, 9.00, 0.00, -2.22, 0.00, 60.26, 0.00
DFLT, 1, 0.244405
DFLT, 3, 0.000000
DFLT, 4, 0.000000
DFLT, 5, 0.000000
DFLT, 6, 0.000000
D16, 2, 1
MOT, 321, 443, -237, 0
ATT, 0.00, 9.04, 0.00, -2.34, 0.00, 60.52, 0.00
DFLT, 1, 0.238850
DFLT, 3, 0.000000
DFLT, 4, 0.000000
DFLT, 5, 0.000000
DFLT, 6, 0.000000
D16, 2, 1
MOT, 298, 433, -233, 0
ATT, 0.00, 9.08, 0.00, -2.43, 0.00, 60.77, 0.00
DFLT, 1, 0.234200
DFLT, 3, 0.000000
DFLT, 4, 0.000000
DFLT, 5, 0.000000
DFLT, 6, 0.000000
D16, 2, 1
MOT, 286, 431, -231, 0
ATT, 0.00, 9.11, 0.00, -2.53, 0.00, 61.03, 0.00
DFLT, 1, 0.231695
DFLT, 3, 0.000000
DFLT, 4, 0.000000
DFLT, 5, 0.000000
DFLT, 6, 0.000000
D16, 2, 1
MOT, 224, 398, -225, 0
ATT, 0.00, 9.18, 0.00, -2.61, 0.00, 61.29, 0.00
DFLT, 1, 0.225664
DFLT, 3, 0.000000
DFLT, 4, 0.000000
DFLT, 5, 0.000000
DFLT, 6, 0.000000
D16, 2, 1
MOT, 179, 350, -230, 0
ATT, 0.00, 9.23, 0.00, -2.65, 0.00, 61.55, 0.00
DFLT, 1, 0.229906
DFLT, 3, 0.000000
DFLT, 4, 0.000000
DFLT, 5, 0.000000
DFLT, 6, 0.000000
D16, 2, 1
MOT, 177, 294, -231, 0
ATT, 0.00, 9.30, 0.00, -2.65, 0.00, 61.82, 0.00
DFLT, 1, 0.231337
DFLT, 3, 0.000000
DFLT, 4, 0.000000
DFLT, 5, 0.000000
DFLT, 6, 0.000000
D16, 2, 1
MOT, 190, 255, -228, 0
ATT, 0.00, 9.39, 0.00, -2.63, 0.00, 62.09, 0.00
DFLT, 1, 0.228117
DFLT, 3, 0.000000
DFLT, 4, 0.000000
DFLT, 5, 0.000000
DFLT, 6, 0.000000
D16, 2, 1
MOT, 161, 192, -229, 0
ATT, 0.00, 9.48, 0.00, -2.56, 0.00, 62.37, 0.00
DFLT, 1, 0.229412
DFLT, 3, 0.000000
DFLT, 4, 0.000000
DFLT, 5, 0.000000
DFLT, 6, 0.000000
D16, 2, 1
MOT, 144, 150, -233, 0
ATT, 0.00, 9.56, 0.00, -2.47, 0.00, 62.65, 0.00
